X Y Z   Yaw Pitch Roll   VYaw VPitch VRoll   Thrust   T1 T2 T3 T4   PWM1 PWM2 PWM3 PWM4
-0,1458259 0,3582305 0,1320939   -156,7931 -0,418819 2,74974   0,4243461 -1,799304 -1,293838   0   0,03093141 0 0 0,005054659   0 0 0 0
-0,1458634 0,3581077 0,1321651   -156,7819 -0,4282677 2,720538   0,4536429 -0,892953 -1,419823   0   0,02312776 0,005268697 0 0   0 0 0 0
-0,1459195 0,3580166 0,1322404   -156,7769 -0,4568088 2,668623   0,4856863 -1,13969 -2,433517   0   0,03573207 0,01293827 0 0   0 0 0 0
-0,1459694 0,3580372 0,1322985   -156,7874 -0,499155 2,613661   -0,1652524 -2,126613 -3,206314   0   0,05332927 0,010797 0 0   0 0 0 0
-0,1460266 0,3580806 0,1323082   -156,8181 -0,5178508 2,570858   -1,23596 -1,831256 -2,932936   0   0,04764192 0,0110168 0 0   0 0 0 0
-0,146092 0,3581376 0,1323096   -156,8552 -0,5185131 2,536061   -2,032467 -0,5807418 -2,327974   0   0,02908716 0,01747232 0 0   0 0 0 0
-0,1461459 0,3581746 0,1322977   -156,8714 -0,5084527 2,524311   -1,598508 0,2819407 -1,396412   0   0,01114472 0,01678353 0 0   0 0 0 0
-0,1462004 0,3582602 0,1322526   -156,8897 -0,4847649 2,525701   -1,036375 1,012443 -0,3107995   0   0 0,01323243 0,007016439 0   0 0 0 0
-0,1462764 0,358329 0,1322288   -156,902 -0,4511333 2,530412   -0,920561 1,71958 0,1830264   0   0 0,01536553 0,01902606 0   0 0 0 0
-0,1462851 0,3584223 0,1322027   -156,9093 -0,4373733 2,563289   -0,5854786 1,421744 1,127627   0   0 0,00294117 0,02549371 0   0 0 0 0
-0,14629 0,3584978 0,1321864   -156,9148 -0,4211766 2,597569   -0,3817742 0,8986992 2,0147   0   0 0 0,02913399 0,01116001   0 0 0 0
-0,1462762 0,3585212 0,1321714   -156,9299 -0,4194833 2,602276   -0,6193531 0,5366991 1,16962   0   0 0 0,01706319 0,006329205   0 0 0 0
-0,1462545 0,3584859 0,1321512   -156,9453 -0,4169288 2,589264   -0,91461 0,1274333 -0,2491231   0   0,001216898 0,003765564 0 0   0 0 0 0
-0,1462256 0,3584687 0,1321309   -156,9686 -0,4545589 2,561283   -1,16226 -1,052264 -1,229794   0   0,02282058 0,001775297 0 0   0 0 0 0
-0,1461776 0,3584178 0,1321187   -156,9843 -0,5126658 2,526239   -1,170957 -2,872105 -1,890768   0   0,04762872 0 0 0,009813368   0 0 0 0
-0,1461512 0,3583904 0,1321037   -156,9856 -0,5462899 2,511973   -0,5090322 -2,751926 -1,479289   0   0,04231215 0 0 0,01272637   0 0 0 0
-0,1461377 0,3583342 0,1320944   -156,985 -0,5534483 2,493476   -0,02059932 -1,223473 -0,9828882   0   0,02206361 0 0 0,002405846   0 0 0 0
-0,1461174 0,3583297 0,1320739   -156,9832 -0,5490116 2,483723   0,071411 -0,08165164 -0,8475192   0   0,009291708 0,007658674 0 0   0 0 0 0
-0,1461314 0,3583335 0,1320732   -156,9859 -0,5436583 2,478349   -0,027008 0,2936995 -0,4537931   0   0,001600936 0,007474926 0 0   0 0 0 0
-0,1461359 0,3583703 0,1320797   -156,994 -0,5318549 2,463874   -0,3231805 0,5147006 -0,5954636   0   0,0008076299 0,01110164 0 0   0 0 0 0
-0,1461947 0,3584312 0,1320494   -157,0055 -0,5160493 2,460778   -0,5891407 0,8282681 -0,5271425   0   0 0,01355411 0,003011256 0   0 0 0 0
-0,1462498 0,3585316 0,1320104   -157,0063 -0,4740562 2,47887   -0,368499 1,733959 0,4498878   0   0 0,01284071 0,02183847 0   0 0 0 0
-0,1463115 0,3586123 0,1319796   -157,0116 -0,4169797 2,500487   -0,1831051 2,972082 1,191278   0   0 0,01780805 0,04163359 0   0 0 0 0
-0,1463611 0,3587126 0,1319605   -157,0166 -0,3659685 2,509186   -0,3099054 3,242623 0,9094673   0   0 0,02333156 0,04152091 0   0 0 0 0
-0,1463853 0,3588078 0,1319636   -157,0173 -0,3573063 2,509648   -0,16983 1,790198 0,2748222   0   0 0,01515376 0,02065021 0   0 0 0 0
-0,1464325 0,3588875 0,1319501   -157,031 -0,3375613 2,50504   -0,4316703 0,8522158 -0,1243756   0   0 0,009765914 0,007278402 0   0 0 0 0
-0,1464854 0,3589499 0,1319571   -157,0453 -0,3109017 2,466217   -0,8422835 1,392135 -1,302929   0   0 0,02695064 0,0008920664 0   0 0 0 0
-0,1465143 0,3590099 0,1319338   -157,0553 -0,2656516 2,434201   -0,7278428 2,157287 -2,125178   0   0 0,04282465 0,0003210846 0   0 0 0 0
-0,1465363 0,359042 0,1319697   -157,0463 -0,2592931 2,389704   -0,02746579 1,548256 -2,29538   0   0,007471244 0,03843635 0 0   0 0 0 0
-0,146542 0,3590315 0,1319721   -157,0243 -0,2771303 2,348203   0,9288006 -0,3443618 -2,579915   0   0,02924277 0,02235553 0 0   0 0 0 0
-0,1465339 0,3590283 0,1319756   -156,992 -0,3055339 2,327309   1,629178 -1,387221 -1,871856   0   0,03259078 0,00484635 0 0   0 0 0 0
-0,1464552 0,3590379 0,13195   -156,9632 -0,3238418 2,307385   1,83334 -1,401341 -1,224551   0   0,02625892 0 0 0,001767894   0 0 0 0
-0,1464589 0,3589767 0,1319396   -156,9565 -0,3122124 2,314364   1,062467 -0,2003544 -0,388333   0   0,005886874 0,001879787 0 0   0 0 0 0
-0,1465534 0,3589476 0,1319554   -156,9859 -0,2804654 2,328811   -0,6820666 1,301288 0,6427776   0   0 0,006585105 0,01944066 0   0 0 0 0
-0,1465807 0,3589418 0,1319708   -156,9959 -0,2730987 2,351283   -1,18057 1,173408 1,10755   0   0 0,0006585792 0,02280958 0   0 0 0 0
-0,1466043 0,3589857 0,1319889   -157,0107 -0,2802298 2,374013   -0,7420335 0,007069394 1,356072   0   0 0 0,01363142 0,01349003   0 0 0 0
-0,1466464 0,3590233 0,1320346   -157,0192 -0,2776132 2,40215   -0,6980882 -0,1354334 1,526009   0   0 0 0,01390576 0,01661443   0 0 0 0
-0,1466493 0,3590318 0,132042   -157,0238 -0,2781962 2,414267   -0,3941337 0,06100583 1,207621   0   0 0 0,01268627 0,01146615   0 0 0 0
-0,1466423 0,35904 0,1320963   -157,0239 -0,2818455 2,44276   -0,142822 -0,1269693 1,218314   0   0 0 0,01091345 0,01345283   0 0 0 0
-0,1466253 0,3589911 0,1321598   -157,0244 -0,2781442 2,432507   -0,01647946 0,001562834 0,5471767   0   0 0 0,005487395 0,005456138   0 0 0 0
-0,1465727 0,3589541 0,1321864   -157,0185 -0,2758117 2,423764   0,1615903 0,1810139 -0,5698789   0   0,003888651 0,007508928 0 0   0 0 0 0
-0,1465305 0,3589043 0,1322306   -157,0128 -0,2916557 2,426118   0,3465264 -0,4053454 -0,1916453   0   0,005969907 0 0 0,002137001   0 0 0 0
-0,1464992 0,3588506 0,1322574   -157,0121 -0,3162926 2,407709   0,1945492 -1,214423 -0,4816451   0   0,01696068 0 0 0,00732778   0 0 0 0
-0,1464728 0,3588575 0,1322663   -157,0173 -0,3297878 2,403939   -0,1341245 -1,143961 -0,6653725   0   0,01809333 0 0 0,004785884   0 0 0 0
-0,1463998 0,3588353 0,132293   -157,026 -0,3294133 2,405633   -0,4179374 -0,3936214 -0,06227719   0   0,004558986 0 0 0,003313442   0 0 0 0
-0,1463501 0,3587927 0,1323475   -157,0115 -0,3256951 2,418325   0,1721188 0,1227797 0,431563   0   0 0 0,005543427 0,003087834   0 0 0 0
-0,1463113 0,3587823 0,1323623   -156,9863 -0,3340659 2,441035   1,191099 -0,1395765 1,062038   0   0 0 0,009224618 0,01201615   0 0 0 0
-0,146246 0,358799 0,1323854   -156,9719 -0,338969 2,4758   1,18881 -0,3982143 1,724242   0   0 0 0,01326028 0,02122457   0 0 0 0
-0,1461914 0,3588091 0,1323771   -156,9612 -0,3242422 2,509584   0,752562 0,2947098 2,056478   0   0 0 0,02351188 0,01761768   0 0 0 0
-0,1461745 0,358824 0,1323832   -156,9663 -0,3174678 2,518386   0,1679989 0,6450325 1,277594   0   0 0 0,01922627 0,00632562   0 0 0 0
-0,1461205 0,3588735 0,1323757   -156,9837 -0,3080014 2,532214   -0,6742846 0,4872223 0,6788908   0   0 0 0,01166113 0,001916685   0 0 0 0
-0,1460852 0,3588725 0,1323584   -156,994 -0,3065906 2,541502   -0,8299239 0,3263151 0,6934677   0   0 0 0,01019783 0,003671526   0 0 0 0
-0,1460414 0,3589025 0,1323766   -156,9965 -0,3298255 2,562232   -0,3836052 -0,6547214 0,9005339   0   0 0 0,002458123 0,01555255   0 0 0 0
-0,1459881 0,3588886 0,1323889   -156,9835 -0,3598223 2,582294   0,3149408 -1,596947 1,22375   0   0,003731973 0 0 0,02820697   0 0 0 0
-0,1458906 0,3588539 0,1323403   -156,961 -0,362265 2,599908   1,064756 -0,9731823 1,130274   0   0 0 0,001570913 0,02103456   0 0 0 0
-0,1458778 0,3588293 0,1323386   -156,9546 -0,3575936 2,605476   0,866545 0,06686198 0,6954848   0   0 0 0,007623467 0,006286228   0 0 0 0
-0,1458346 0,3587763 0,1323106   -156,9287 -0,3240142 2,611349   0,9677106 1,147521 0,3432291   0   0 0,008042919 0,0149075 0   0 0 0 0
-0,1457978 0,3587433 0,1322858   -156,9041 -0,3168862 2,616514   1,513364 1,22122 0,331127   0   0 0,00890093 0,01552347 0   0 0 0 0
-0,1457545 0,3587035 0,1322967   -156,8745 -0,3595484 2,624625   1,625516 -1,066024 0,3982965   0   0,006677275 0 0 0,01464321   0 0 0 0
-0,1457187 0,358681 0,1322983   -156,8639 -0,3947138 2,632213   1,208494 -2,334825 0,4709807   0   0,01863845 0 0 0,02805806   0 0 0 0
-0,1457028 0,3586133 0,1323296   -156,8604 -0,4278072 2,637069   0,422515 -2,04776 0,3733127   0   0,01674447 0 0 0,02421072   0 0 0 0
-0,1456891 0,3585823 0,1323537   -156,8585 -0,4319372 2,645358   0,1606747 -1,1167 0,3943269   0   0,007223728 0 0 0,01511027   0 0 0 0
-0,1456467 0,3585181 0,1323907   -156,8731 -0,4557322 2,6552   -0,3794853 -0,8377497 0,5439152   0   0,002938346 0 0 0,01381665   0 0 0 0
-0,1456103 0,3584291 0,1324403   -156,8708 -0,4506628 2,658757   -0,3689568 -0,5617653 0,4019801   0   0,001597852 0 0 0,009637454   0 0 0 0
-0,1456251 0,3583585 0,1324735   -156,86 -0,4496811 2,648514   0,3927605 0,1815333 -0,2005788   0   0,0001904544 0,003821121 0 0   0 0 0 0
-0,1456277 0,3583027 0,1324856   -156,8441 -0,4477527 2,632198   0,8006271 0,08730394 -0,7967647   0   0,007094608 0,008840687 0 0   0 0 0 0
-0,1456428 0,3582491 0,1324749   -156,8304 -0,4590291 2,61554   0,8866865 -0,2804387 -0,9892182   0   0,01269657 0,007087795 0 0   0 0 0 0
-0,1456453 0,3582417 0,1324756   -156,8353 -0,4767058 2,601323   0,2645869 -0,8685915 -0,9262472   0   0,01794839 0,0005765576 0 0   0 0 0 0
-0,1456363 0,3582379 0,1324919   -156,85 -0,4935016 2,598526   -0,5863941 -1,034175 -0,5104126   0   0,01544587 0 0 0,00523762   0 0 0 0
-0,1456164 0,358237 0,1325056   -156,8694 -0,5019679 2,597113   -1,021726 -0,7578629 -0,1263068   0   0,008841697 0 0 0,006315561   0 0 0 0
-0,1456257 0,3582428 0,1325285   -156,8737 -0,4868126 2,602556   -0,7113634 0,20067 0,1209138   0   0 0,0007975623 0,003215837 0   0 0 0 0
-0,1456434 0,3582683 0,1325391   -156,8725 -0,481745 2,609869   -0,09567242 0,6066859 0,3826968   0   0 0,00223989 0,009893827 0   0 0 0 0
-0,1456812 0,3583516 0,1325795   -156,8667 -0,4829328 2,617468   0,2087398 0,1163933 0,4473558   0   0 0 0,005637492 0,003309625   0 0 0 0
-0,1457171 0,3583892 0,1325774   -156,8625 -0,4810367 2,620069   0,3002924 0,02124931 0,305993   0   0 0 0,003272423 0,002847436   0 0 0 0
-0,1457668 0,3584676 0,1325712   -156,8644 -0,452023 2,609276   0,06912217 0,9272923 -0,2457614   0   0 0,01173054 0,00681531 0   0 0 0 0
-0,1458235 0,3585284 0,1325426   -156,868 -0,4114164 2,602721   -0,1629635 2,088605 -0,5204334   0   0 0,02609039 0,01568172 0   0 0 0 0
-0,1458516 0,3585712 0,1325292   -156,8728 -0,3946672 2,595092   -0,2522273 1,72067 -0,4255263   0   0 0,02146197 0,01295144 0   0 0 0 0
-0,1458787 0,3585716 0,1325328   -156,8736 -0,4049816 2,595717   -0,1675412 0,1930418 -0,2101274   0   0,000170856 0,004031692 0 0   0 0 0 0
-0,1458672 0,3585604 0,1325307   -156,8769 -0,4022476 2,601676   -0,1222227 -0,2274115 0,1975318   0   0,0002987974 0 0 0,004249433   0 0 0 0
-0,1458442 0,3585054 0,1325324   -156,8873 -0,4109068 2,592327   -0,411071 -0,1777532 -0,1017163   0   0,002794695 0 0 0,0007603688   0 0 0 0
-0,1458326 0,3584956 0,1325371   -156,8888 -0,4176481 2,592695   -0,3561395 -0,4620123 -0,269422   0   0,007314343 0 0 0,001925902   0 0 0 0
-0,1458317 0,3584349 0,1325577   -156,8835 -0,4437513 2,596705   0,1130674 -0,9853352 0,1313636   0   0,008539716 0 0 0,01116699   0 0 0 0
-0,1458475 0,3583785 0,1326164   -156,8667 -0,4689334 2,592433   0,663756 -1,538558 -0,007860646   0   0,01546418 0 0 0,01530697   0 0 0 0
-0,1458567 0,3583555 0,1326602   -156,8672 -0,474393 2,579356   0,4879751 -0,9192467 -0,5204763   0   0,01439723 0 0 0,003987704   0 0 0 0
-0,1458951 0,3583204 0,1327125   -156,8687 -0,4703147 2,563445   -0,05950916 -0,04143737 -0,869642   0   0,009110793 0,008282047 0 0   0 0 0 0
-0,1459242 0,3583243 0,1327677   -156,8891 -0,4555465 2,557805   -0,6568896 0,5653925 -0,646547   0   0,0008115452 0,01211939 0 0   0 0 0 0
-0,1459577 0,3583197 0,1328121   -156,899 -0,4552259 2,552058   -0,9104902 0,4526612 -0,3416341   0   0 0,007942952 0,001110271 0   0 0 0 0
-0,1460013 0,35831 0,1328868   -156,9252 -0,4488395 2,567811   -1,083982 0,2012082 0,3001851   0   0 0 0,005013932 0,0009897689   0 0 0 0
-0,1460432 0,3583233 0,1329456   -156,9417 -0,4523745 2,566813   -1,281278 0,08554174 0,4426495   0   0 0 0,005281912 0,003571077   0 0 0 0
-0,146085 0,3583366 0,1330136   -156,9562 -0,4474781 2,576819   -0,9274274 0,0408446 0,2702374   0   0 0 0,00311082 0,002293928   0 0 0 0
-0,1461274 0,3583357 0,1330643   -156,968 -0,445638 2,584115   -0,789183 0,202096 0,5190744   0   0 0 0,007211704 0,003169783   0 0 0 0
-0,1461455 0,3583229 0,1331138   -156,9666 -0,4416696 2,591449   -0,3117365 0,1742538 0,4389158   0   0 0 0,006131697 0,00264662   0 0 0 0
-0,1461491 0,3583029 0,1331292   -156,9681 -0,4567828 2,594184   -0,002746578 -0,334343 0,3020591   0   0,000322839 0 0 0,00636402   0 0 0 0
-0,1461476 0,3582796 0,1331604   -156,9688 -0,4488287 2,596581   -0,06729113 -0,2147721 0,1539513   0   0,0006082074 0 0 0,003687234   0 0 0 0
-0,146109 0,3582493 0,1331715   -156,9769 -0,4567971 2,610575   -0,2632136 -0,0004291534 0,4917374   0   0 0 0,004913082 0,004921665   0 0 0 0
-0,1460439 0,3582331 0,1331598   -156,9786 -0,4675767 2,619262   -0,2934259 -0,5624394 0,6804358   0   0 0 0,001179964 0,01242875   0 0 0 0
-0,145973 0,3582169 0,1331459   -156,9691 -0,4930055 2,625211   0,233459 -1,08625 0,4390947   0   0,006471549 0 0 0,01525344   0 0 0 0
-0,1459271 0,358213 0,1331104   -156,959 -0,5000036 2,630951   0,5859363 -0,9728067 0,3506749   0   0,006221318 0 0 0,01323482   0 0 0 0
-0,1459013 0,3582122 0,1330734   -156,9496 -0,5042314 2,62817   0,5836475 -0,3367766 0,08876306   0   0,002480136 0 0 0,004255397   0 0 0 0
-0,1458658 0,3581778 0,1330084   -156,945 -0,4956561 2,627549   0,4215995 0,1304266 -0,1020668   0   0 0,002324934 0,0002835983 0   0 0 0 0
-0,1458602 0,3581745 0,132946   -156,9306 -0,5015414 2,62488   0,5703725 0,08069856 -0,09871225   0   0,0001801369 0,001794108 0 0   0 0 0 0
-0,1458501 0,3581561 0,1328765   -156,9198 -0,5008427 2,600088   0,7562242 -0,1555982 -0,8238443   0   0,009794424 0,00668246 0 0   0 0 0 0
-0,1458683 0,358184 0,1328324   -156,9019 -0,5025628 2,576422   0,8624251 -0,03063971 -1,453719   0   0,01484358 0,01423079 0 0   0 0 0 0
-0,1458605 0,358175 0,1328196   -156,8865 -0,5150747 2,564949   0,9983806 -0,4269586 -1,05417   0   0,01481129 0,006272119 0 0   0 0 0 0
-0,145882 0,3581785 0,1328021   -156,8874 -0,5042717 2,564227   0,4335014 -0,05126762 -0,3658669   0   0,004171345 0,003145993 0 0   0 0 0 0
-0,1458763 0,3582012 0,1328004   -156,8934 -0,4934579 2,553592   -0,2069088 0,6485006 -0,34069   0   0 0,009891905 0,003078106 0   0 0 0 0
-0,1458897 0,358215 0,1327962   -156,9092 -0,4786271 2,562308   -0,6527697 0,7693365 -0,05756366   0   0 0,008269002 0,007117729 0   0 0 0 0
-0,1458953 0,3582519 0,1327956   -156,9201 -0,4736886 2,564978   -0,8001693 0,5930782 0,3415697   0   0 0,002515085 0,00934648 0   0 0 0 0
-0,1459211 0,3582904 0,1328169   -156,923 -0,4677193 2,582073   -0,4151908 0,3272342 0,592953   0   0 0 0,009201872 0,002657187   0 0 0 0
-0,1459731 0,3583046 0,1328542   -156,9248 -0,4553186 2,596087   -0,1423642 0,5511008 0,9332567   0   0 0 0,01484357 0,003821559   0 0 0 0
-0,1459718 0,3582841 0,132869   -156,9238 -0,4417953 2,601617   -0,02151485 0,7777157 0,5863225   0   0 0,001913931 0,01364038 0   0 0 0 0
-0,1459745 0,3582992 0,1329621   -156,9271 -0,4313906 2,594842   -0,06820665 0,7178382 -0,03732912   0   0 0,007551673 0,00680509 0   0 0 0 0
-0,1460072 0,3583598 0,1330612   -156,9401 -0,4580015 2,590183   -0,4898062 -0,4861843 -0,3430145   0   0,008291988 0 0 0,001431698   0 0 0 0
-0,1460164 0,3584234 0,1331836   -156,9587 -0,4775183 2,571189   -0,9484845 -1,38383 -0,7095823   0   0,02093413 0 0 0,006742479   0 0 0 0
-0,1460194 0,3584768 0,1332938   -156,9791 -0,4832765 2,563044   -1,170042 -0,7582465 -0,8141811   0   0,01572428 0,0005593463 0 0   0 0 0 0
-0,1460187 0,3585148 0,1333535   -156,9985 -0,4741532 2,559587   -1,194303 0,1009555 -0,3480642   0   0,002471088 0,004490197 0 0   0 0 0 0
-0,1460161 0,3585362 0,133383   -157,0014 -0,4754779 2,567259   -0,6687914 0,233957 0,1264355   0   0 0,001075215 0,003603925 0   0 0 0 0
-0,1459992 0,3585967 0,1334164   -157,0109 -0,4588816 2,580565   -0,3726189 0,4581445 0,6293452   0   0 0 0,0108749 0,001712006   0 0 0 0
-0,1459847 0,3586373 0,1334421   -156,9985 -0,4488364 2,601206   0,08651718 0,7992439 1,018429   0   0 0 0,01817673 0,002191854   0 0 0 0
-0,1459722 0,3586811 0,1334652   -156,9801 -0,4507333 2,62688   0,9242231 0,2444507 1,389446   0   0 0 0,01633897 0,01144995   0 0 0 0
-0,145983 0,3587455 0,1334904   -156,9453 -0,4436046 2,647089   1,596219 0,1569527 1,376493   0   0 0 0,01533445 0,0121954   0 0 0 0
-0,1459724 0,3587719 0,1334978   -156,9214 -0,4277022 2,64219   1,762387 0,6909294 0,4592934   0   0 0,00231636 0,01150223 0   0 0 0 0
-0,1459828 0,3588326 0,1335095   -156,9156 -0,4235913 2,631663   0,8889753 0,600397 -0,462791   0   0 0,01063188 0,00137606 0   0 0 0 0
-0,1460138 0,3588562 0,1335528   -156,9133 -0,434974 2,598581   0,2439876 -0,2181526 -1,308286   0   0,01526438 0,01090133 0 0   0 0 0 0
-0,145949 0,3588104 0,1335515   -156,9206 -0,462785 2,55526   -0,1473996 -1,175809 -2,292083   0   0,03467892 0,01116273 0 0   0 0 0 0
-0,1459641 0,3588238 0,1336107   -156,9306 -0,4898515 2,5307   -0,5218496 -1,646322 -2,036408   0   0,0368273 0,003900856 0 0   0 0 0 0
-0,1459258 0,358757 0,1336535   -156,9448 -0,5026286 2,522045   -0,7269273 -1,195304 -0,9964423   0   0,02191746 0 0 0,001988612   0 0 0 0
-0,1459734 0,3586829 0,1337354   -156,9297 -0,4815763 2,506224   0,027008 0,2482567 -0,7342873   0   0,004860306 0,00982544 0 0   0 0 0 0
-0,1459802 0,3586689 0,1337669   -156,9252 -0,4740442 2,501927   0,5891407 0,85753 -0,6035388   0   0 0,01461069 0,002539912 0   0 0 0 0
-0,1460351 0,3586572 0,1338611   -156,9098 -0,4642035 2,480625   0,5973804 0,5211835 -0,7679757   0   0,002467922 0,01289159 0 0   0 0 0 0
-0,1460564 0,3586449 0,1339787   -156,8996 -0,4690183 2,451738   0,7672104 0,1507747 -1,505675   0   0,013549 0,0165645 0 0   0 0 0 0
-0,1461056 0,3586334 0,1341068   -156,8961 -0,480772 2,412589   0,411071 -0,4970553 -2,041064   0   0,02538119 0,01544009 0 0   0 0 0 0
-0,1461537 0,3586255 0,1342144   -156,899 -0,4749228 2,38564   0,0160217 -0,1771345 -1,982943   0   0,02160077 0,01805808 0 0   0 0 0 0
-0,1461563 0,3586031 0,1343064   -156,8849 -0,4786343 2,330008   0,3373712 0,06413149 -2,477419   0   0,02413288 0,02541551 0 0   0 0 0 0
-0,1462416 0,3585761 0,134368   -156,8971 -0,4831755 2,313213   0,05722034 -0,2475808 -2,172807   0   0,02420387 0,01925226 0 0   0 0 0 0
-0,1462538 0,3585629 0,1344301   -156,9027 -0,4981079 2,286268   -0,5332936 -0,5842072 -1,312198   0   0,01896406 0,007279912 0 0   0 0 0 0
-0,1462994 0,3585359 0,1345491   -156,8714 -0,5382755 2,213126   0,7727035 -1,652995 -3,002588   0   0,04655582 0,01349593 0 0   0 0 0 0
-0,146298 0,358529 0,1346113   -156,8386 -0,5380989 2,172439   1,92123 -1,199726 -3,414867   0   0,04614594 0,02215141 0 0   0 0 0 0
-0,1463066 0,3585196 0,134652   -156,799 -0,5356737 2,151809   2,171627 0,07805392 -1,839505   0   0,01761451 0,01917559 0 0   0 0 0 0
-0,1462743 0,358499 0,134652   -156,762 -0,5132043 2,15553   2,298427 0,7468346 -0,5072656   0   0 0,012541 0,00239569 0   0 0 0 0
-0,1462266 0,3584993 0,134659   -156,7532 -0,5122166 2,146851   1,373746 0,7037101 -0,1487443   0   0 0,008524545 0,005549659 0   0 0 0 0
-0,1461754 0,3584933 0,1346284   -156,7428 -0,497889 2,171729   0,5776966 0,4594606 0,485951   0   0 0 0,009454116 0,000264904   0 0 0 0
-0,1461012 0,3585007 0,1346132   -156,7546 -0,4911567 2,198945   -0,04257196 0,6317958 1,562795   0   0 0 0,0219459 0,009309991   0 0 0 0
-0,1460343 0,3585379 0,1345816   -156,7587 -0,473808 2,216581   -0,4792776 0,7224283 1,345565   0   0 0 0,02067993 0,006231368   0 0 0 0
-0,1459655 0,3585779 0,1345532   -156,7525 -0,4796096 2,241259   0,06225574 0,3464129 1,269426   0   0 0 0,01615839 0,009230134   0 0 0 0
-0,1459118 0,3585936 0,1345044   -156,7323 -0,4843445 2,2585   0,7933029 -0,316095 1,257575   0   0 0 0,009414796 0,0157367   0 0 0 0
-0,1458928 0,358607 0,1344784   -156,723 -0,4825538 2,267648   0,8862287 -0,08832407 0,7916721   0   0 0 0,00703348 0,008799961   0 0 0 0
-0,1458581 0,358614 0,1344131   -156,7035 -0,4667306 2,27242   0,8637984 0,5284156 0,4176012   0   0 0,001108144 0,009460168 0   0 0 0 0
-0,145818 0,3586253 0,134364   -156,7084 -0,4601128 2,273936   0,4389945 0,673226 0,1886483   0   0 0,004845777 0,008618743 0   0 0 0 0
-0,1457743 0,3586218 0,1343364   -156,7165 -0,4601896 2,25683   -0,3909294 0,19623 -0,4676905   0   0,002714605 0,006639205 0 0   0 0 0 0
-0,1457333 0,3586441 0,1343422   -156,7344 -0,4629909 2,261705   -0,77957 -0,08634192 -0,3669469   0   0,004532889 0,00280605 0 0   0 0 0 0
-0,1457139 0,3586786 0,1343347   -156,7511 -0,4706406 2,277025   -1,035917 -0,3135309 0,6058276   0   0 0 0,002922967 0,009193584   0 0 0 0
-0,1457142 0,3586809 0,1343369   -156,7583 -0,4672096 2,276509   -0,7177721 -0,1265598 0,4441229   0   0 0 0,003175631 0,005706827   0 0 0 0
-0,1456979 0,3587025 0,1343376   -156,7663 -0,4647534 2,29269   -0,4568473 0,176616 0,4699507   0   0 0 0,006465666 0,002933347   0 0 0 0
-0,145704 0,3587042 0,134327   -156,7701 -0,4555994 2,284049   -0,3556817 0,3483038 0,226192   0   0 0,001221118 0,005744958 0   0 0 0 0
-0,1456773 0,3587327 0,1343359   -156,7667 -0,4633072 2,269917   -0,01144407 0,04338554 -0,6831824   0   0,006397968 0,007265679 0 0   0 0 0 0
-0,14567 0,3587467 0,1343258   -156,7607 -0,4674945 2,262088   0,2842707 -0,356852 -0,6588207   0   0,01015673 0,003019687 0 0   0 0 0 0
-0,1456774 0,3587366 0,134325   -156,7543 -0,49517 2,224118   0,3712456 -0,9558802 -1,373968   0   0,02329848 0,004180875 0 0   0 0 0 0
-0,1456721 0,3587253 0,1343419   -156,7492 -0,5001022 2,215418   0,3446954 -0,9782292 -1,400096   0   0,02378325 0,004218669 0 0   0 0 0 0
-0,1456693 0,3587286 0,1343386   -156,7443 -0,5246412 2,181254   0,2989191 -0,8841339 -1,285913   0   0,02170047 0,004017789 0 0   0 0 0 0
-0,1456786 0,3587098 0,1343256   -156,7314 -0,5330884 2,160801   0,5323781 -0,9895848 -1,638497   0   0,02628082 0,006489126 0 0   0 0 0 0
-0,1456797 0,3586834 0,1343107   -156,7139 -0,5353907 2,16278   0,9136945 -0,3224849 -0,554222   0   0,008767068 0,002317371 0 0   0 0 0 0
-0,1456653 0,3586608 0,1343232   -156,7027 -0,5265793 2,1629   0,8628829 0,1952752 0,06296384   0   0 0,001323113 0,00258239 0   0 0 0 0
-0,1456409 0,3586323 0,1343366   -156,6983 -0,5217645 2,173679   0,4655448 0,4087858 0,3269714   0   0 0,0008181436 0,007357571 0   0 0 0 0
-0,1456368 0,3586247 0,1343518   -156,6948 -0,5220333 2,177712   0,2348323 0,1363775 0,4443518   0   0 0 0,005807293 0,003079742   0 0 0 0
-0,1456591 0,3585935 0,1343865   -156,7025 -0,5254397 2,15589   -0,1240537 -0,1102565 -0,5336656   0   0,00643922 0,004234091 0 0   0 0 0 0
-0,1456635 0,3586079 0,1344221   -156,7157 -0,5452251 2,123486   -0,6266773 -0,695753 -1,62676   0   0,02322513 0,009310072 0 0   0 0 0 0
-0,1457075 0,3586039 0,1344689   -156,7218 -0,5391011 2,081721   -0,580901 -0,4098408 -2,225063   0   0,02634904 0,01815222 0 0   0 0 0 0
-0,1457569 0,358601 0,1345132   -156,7197 -0,5159951 2,038376   -0,1199339 0,8768982 -2,553301   0   0,01676402 0,03430199 0 0   0 0 0 0
-0,1458122 0,3586006 0,1345432   -156,7033 -0,4963416 1,996922   0,5561818 1,282783 -2,543974   0   0,01261191 0,03826757 0 0   0 0 0 0
-0,1458848 0,3585918 0,1346079   -156,677 -0,4934489 1,946849   1,282651 0,6763856 -2,745793   0   0,02069408 0,03422179 0 0   0 0 0 0
-0,1458994 0,3585813 0,1346407   -156,6643 -0,476949 1,919301   1,169126 0,5817763 -2,328625   0   0,01746849 0,02910401 0 0   0 0 0 0
-0,1460929 0,3585058 0,1347513   -156,6616 -0,4867587 1,92115   0,4614249 0,2007066 -0,7709941   0   0,005702875 0,009717007 0 0   0 0 0 0
-0,1460095 0,3585353 0,1347897   -156,6266 -0,4665183 1,884485   1,132963 0,3129202 -1,044475   0   0,00731555 0,01357395 0 0   0 0 0 0
-0,1460376 0,3585164 0,1348709   -156,6171 -0,4855628 1,890629   1,334836 0,03587717 -0,9156114   0   0,008797342 0,009514885 0 0   0 0 0 0
-0,1460508 0,3585052 0,134973   -156,6327 -0,508926 1,882512   -0,1826473 -1,27223 -0,05920517   0   0,01331435 0 0 0,01213025   0 0 0 0
-0,1461971 0,3584819 0,1351048   -156,6682 -0,5331325 1,899243   -1,534421 -1,427089 0,2584214   0   0,01168667 0 0 0,0168551   0 0 0 0
-0,1461055 0,3585622 0,1351091   -156,6568 -0,4930243 1,853792   -0,7228075 0,4770523 -0,8615882   0   0,003845359 0,01338641 0 0   0 0 0 0
-0,1462838 0,3585745 0,1352644   -156,6775 -0,4786597 1,846095   -0,2764888 1,634181 -1,594449   0   0 0,03228629 0,0003973246 0   0 0 0 0
-0,1462158 0,358707 0,1353327   -156,6476 -0,423838 1,792492   0,2741999 2,075585 -1,83899   0   0 0,03914575 0,002365943 0   0 0 0 0
-0,14626 0,3587815 0,1354235   -156,6367 -0,4067488 1,759566   1,2236 2,157322 -2,595869   0,004444445   0,008829912 0,05197636 5,897693E-05 0   0 0 0 0
-0,146311 0,358795 0,1355096   -156,6312 -0,3575133 1,734625   0,4930105 1,989737 -1,736005   0,04444445   0,04190712 0,08170186 0,04698177 0,007187035   53 56 53 50
-0,1463132 0,3587945 0,1355374   -156,6321 -0,3507034 1,708369   0,1373288 1,681357 -1,535905   0,04888889   0,04743436 0,08106151 0,05034341 0,01671626   53 56 54 51
-0,1463122 0,3587838 0,1355445   -156,6293 -0,3564201 1,707408   0,05767811 0,0327944 -0,81652   0,04888889   0,05672614 0,05738203 0,04105163 0,04039574   54 54 53 53
-0,1463024 0,3587566 0,1354956   -156,6144 -0,3866599 1,717118   0,5296316 -1,07869 0,262484   0,04888889   0,05705095 0,03547715 0,04072683 0,06230063   54 52 53 54
-0,1463117 0,3586967 0,1354335   -156,6083 -0,425456 1,753107   0,6280506 -2,071074 1,370964   0,04888889   0,05588999 0,01446852 0,04188779 0,08330926   54 51 53 56
-0,1464245 0,3585866 0,1353415   -156,6259 -0,4683127 1,815219   -0,3437799 -2,449579 2,943021   0,04888889   0,04395446 0 0,05382331 0,1028149   53 50 54 58
-0,1463857 0,3585752 0,1352151   -156,6237 -0,4866671 1,84948   -0,4605094 -1,836329 2,891194   0,04888889   0,03834024 0,001613662 0,05943754 0,09616411   53 50 54 57
-0,146362 0,3586294 0,1350561   -156,6196 -0,486975 1,868626   0,1876827 -0,559868 1,602213   0,04888889   0,03846544 0,02726808 0,05931234 0,07050969   53 52 54 55
-0,146368 0,3586592 0,1349958   -156,6136 -0,4837965 1,86124   0,3025812 0,0861193 0,3527884   0,04888889   0,04449981 0,0462222 0,05327797 0,05155558   53 53 54 54
-0,1463736 0,3587403 0,1348587   -156,6027 -0,4618444 1,875651   0,5090322 0,7539165 0,2107425   0,04888889   0,0392423 0,05432063 0,05853548 0,04345715   53 54 54 53
-0,1462648 0,3589155 0,1347177   -156,5723 -0,3952261 1,840629   1,237333 2,657105 -0,6183088   0,04888889   0,02850092 0,08164303 0,06927685 0,01613475   52 56 55 51
-0,146234 0,3590067 0,1346316   -156,5753 -0,3565821 1,832382   0,8198531 3,157862 -1,298079   0,04888889   0,03029106 0,0934483 0,06748672 0,004329472   52 57 55 50
-0,1461961 0,359049 0,1345652   -156,5801 -0,341056 1,825162   -0,2325435 1,6251 -0,464032   0,04888889   0,03727821 0,06978021 0,06049957 0,02799757   52 55 54 52
-0,1461218 0,35901 0,1345218   -156,562 -0,3530123 1,874209   0,4005424 0,1070932 1,254821   0,04888889   0,03526975 0,03741161 0,06250803 0,06036616   52 52 55 54
-0,1460199 0,3589838 0,1344899   -156,543 -0,3956616 1,882476   1,114195 -1,638163 1,719425   0,04444445   0,04363183 0,01086857 0,04525706 0,07802033   53 50 53 56
-0,1459709 0,3589225 0,1344733   -156,5648 -0,343712 1,897961   -0,0842284 0,2790091 0,7125579   0,03555556   0,02563989 0,03122007 0,04547122 0,03989105   52 52 53 53
-0,1460321 0,3588053 0,1345503   -156,5829 -0,3684146 1,927792   -1,19705 0,8174078 1,359488   0,03111111   0,009342158 0,02569032 0,05288006 0,03653191   50 52 54 52
-0,1459617 0,3586544 0,134518   -156,5407 -0,3327216 1,996402   0,7223496 0,3297099 2,95321   0,03555556   0,002726356 0,009320554 0,06838476 0,06179056   50 50 55 54
-0,1458317 0,3585366 0,1343289   -156,51 -0,5745131 1,929371   2,185359 -6,182944 0,04737115   0,03555556   0,09691129 0 0 0,0978587   57 50 50 57
-0,1451818 0,3576693 0,1346589   -156,4436 -0,5760037 1,377742   2,914576 -7,298449 -18,55976   0,03111111   0,2896932 0,1437243 0 0   73 61 50 50
-0,1462027 0,3580198 0,1351824   -156,2313 -0,1259904 2,15359   8,362411 13,45566 6,726563   0,03111111   0 0,09840205 0,2329333 0   50 57 68 50
-0,1453295 0,3581804 0,1344212   -156,5646 -0,5649232 1,985097   -3,630517 0,3324146 18,22061   0,03111111   0 0 0,2166414 0,2099931   50 50 67 66
-0,1453465 0,3582346 0,134478   -156,5056 -0,6764237 1,910068   -8,231033 -16,51297 -7,305665   0,03111111   0,2692974 0 0 0,1231841   71 50 50 59
-0,1452991 0,3579914 0,1342921   -156,4682 -0,6238841 1,907774   2,891687 -1,768824 -2,319666   0,02666667   0,06755157 0,03217509 0 0,02115824   55 52 50 51
-0,145209 0,3579341 0,1342739   -156,4662 -0,7036358 1,784551   1,182859 -0,816361 -3,765503   0,02222222   0,06804086 0,05171364 0 0   55 54 50 50
-0,1451115 0,3578892 0,1340909   -156,3113 -0,6521474 1,513255   4,707633 -0,8478965 -11,83556   0,02222222   0,1490568 0,1320989 0 0   61 60 50 50
-0,1449898 0,3579773 0,1340766   -156,2147 -0,5746575 1,565742   7,543931 3,869342 -6,564258   0,02666667   0,05361582 0,1310027 0 0   54 60 50 50
-0,1450853 0,3579898 0,1339911   -156,2045 -0,6620581 1,381323   3,203424 -0,2973206 -3,957928   0,02222222   0,06477471 0,0588283 0 0   55 54 50 50
-0,1450777 0,3582902 0,1335687   -156,0476 -0,5461999 1,310536   5,014791 0,8537276 -7,656168   0,02222222   0,09024663 0,1073212 0 0   57 58 50 50
-0,1454765 0,357605 0,1342149   -155,8574 -0,2440644 1,381924   10,41319 12,53979 0,01801348   0,02222222   0 0,14744 0,1478002 0   50 61 61 50
-0,1449146 0,3581709 0,1340712   -156,2587 -0,4710615 1,505897   -6,333605 2,254147 5,860823   0,02222222   0 0 0,1033719 0,05828898   50 50 58 54
-0,1449774 0,3583088 0,1342321   -156,2734 -0,5250635 1,50675   -12,47907 -8,429957 3,744768   0,02222222   0,06907412 0 0 0,1439695   55 50 50 61
-0,1448354 0,3582235 0,1341365   -156,2772 -0,4344453 1,678326   -0,555724 1,098482 5,172862   0,02222222   0 0 0,08493567 0,06296602   50 50 56 55
-0,1444556 0,357826 0,1341808   -156,2498 -0,2979755 1,524014   0,708159 6,812628 0,5179296   0,02222222   0 0,0851692 0,0955278 0   50 56 57 50
-0,1445032 0,3578114 0,1343611   -156,1929 -0,2908532 1,626448   2,530055 4,307754 -1,556347   0,02222222   0 0,08086324 0,04973629 0   50 56 53 50
-0,14431 0,357538 0,1349228   -156,1596 -0,1339409 1,432684   2,703547 4,921029 -2,7399   0,02222222   0,0004109368 0,0988315 0,04403351 0   50 57 53 50
-0,1444209 0,3576815 0,1343026   -156,046 -0,3644176 1,539001   4,406882 -2,206928 -2,623399   0,02222222   0,07052549 0,02638694 0 0,01805751   55 52 50 51
-0,1448154 0,3573936 0,134536   -156,1752 -0,4023792 1,403224   -0,466918 -8,053135 -0,8838038   0,02222222   0,1115916 0 0 0,09391553   58 50 50 57
-0,1444753 0,3572967 0,1345363   -155,9189 -0,3185751 1,417608   3,811333 1,375272 -3,641771   0,02222222   0,04488721 0,07239266 0 0   53 55 50 50
-0,1445535 0,3574233 0,1346855   -155,9857 -0,4052905 1,337458   5,683583 -0,08733606 -1,972954   0,05777778   0,07838067 0,07663395 0,03717488 0,0389216   56 56 52 53
-0,1446404 0,3577346 0,1344725   -156,0388 -0,6410138 1,325951   -3,594353 -9,673141 -2,749717   0,08   0,2042286 0,01076575 0 0,1492342   66 50 50 61
-0,1447121 0,3571609 0,1347729   -156,0434 -0,4324267 1,101413   -1,728055 -0,8140845 -7,081358   0,08   0,1589544 0,1426727 0,001045572 0,01732726   62 61 50 51
-0,1449035 0,3574446 0,1350161   -155,9294 -0,448337 1,192111   3,280786 5,780292 -4,01517   0,08444444   0,06679322 0,182399 0,1020957 0   55 64 58 50
-0,1448696 0,3572803 0,1347356   -155,7744 -0,2934068 1,068442   8,069901 4,170587 -0,9891145   0,08888889   0,05707417 0,1404859 0,1207036 0,03729188   54 61 59 52
-0,1450503 0,3576481 0,134803   -156,0045 -0,4790943 1,390679   -2,252651 -0,9227152 5,957028   0,1022222   0,05187909 0,03342478 0,1525653 0,1710197   54 52 62 63
-0,1451014 0,3576715 0,1347691   -156,0103 -0,460364 1,435829   -7,078386 -5,008705 11,02158   0,1066667   0,04653796 0 0,1667954 0,2669695   53 50 63 71
-0,1453417 0,357612 0,1350156   -155,8705 -0,07961422 1,694654   4,020988 11,98438 9,119206   0,1066667   0 0,1353184 0,3177025 0,07801494   50 60 75 56
-0,145431 0,3578245 0,1343603   -156,1768 -0,5734441 1,3453   -4,99648 -3,392396 -2,715853   0,1066667   0,1677492 0,09990124 0,04558419 0,1134321   63 57 53 59
-0,1451468 0,3577599 0,1348029   -155,9483 -0,2163067 1,378317   -2,336421 -4,100765 -9,490091   0,1066667   0,2425752 0,1605599 0 0,05277341   69 62 50 54
-0,1453321 0,3576705 0,1348608   -155,9372 -0,1558824 1,392417   7,189165 12,52682 1,413493   0,1111111   0 0,2222444 0,2505143 0   50 67 70 50
-0,1453207 0,3580286 0,1346219   -156,0667 -0,3395198 1,555673   -3,550866 -3,696386 5,320694   0,1111111   0,09486803 0,02094031 0,1273542 0,2012819   57 51 60 66
-0,1457479 0,3577828 0,1346588   -156,0188 -0,3486905 1,726533   -2,447658 -5,784231 10,02347   0,1111111   0,06871875 0 0,1535035 0,2691881   55 50 62 71
-0,145315 0,357772 0,1346633   -156,1242 -0,4980003 1,631486   -1,725766 -4,754406 2,274384   0,1111111   0,1359113 0,04082321 0,08631089 0,181399   60 53 56 64
-0,1452803 0,3577727 0,1347175   -156,0906 -0,5009748 1,633188   -2,152858 -4,568521 -2,800332   0,1111111   0,1847996 0,09342922 0,03742259 0,128793   64 57 52 60
-0,1454503 0,3576744 0,1346696   -156,0962 -0,6046214 1,511045   0,8404524 -3,198626 -3,61324   0,1111111   0,1792298 0,1152572 0,04299245 0,106965   64 59 53 58
-0,1449282 0,3579922 0,1344584   -155,9026 -0,4507121 1,410437   5,637349 1,50788 -6,682528   0,1155556   0,167302 0,1974596 0,06380907 0,03365147   63 65 55 52
-0,1449943 0,3579437 0,1346502   -155,9104 -0,4001064 1,475781   5,573262 6,135437 -1,0579   0,12   0,06922463 0,1919334 0,1707754 0,04806662   55 65 63 53
-0,1447915 0,3580912 0,134543   -155,8865 -0,2571802 1,363762   0,4852285 5,805945 -1,40025   0,1244444   0,08038749 0,1965064 0,1685014 0,0523825   56 65 63 54
-0,1448931 0,3577305 0,1347961   -155,7891 -0,05233233 1,210414   3,640587 10,4332 -7,96101   0,1288889   0,104167 0,312831 0,1536108 0   58 75 62 50
-0,1450501 0,3579181 0,134826   -155,8451 -0,103972 1,189804   1,240537 4,596237 -5,218714   0,1288889   0,1351137 0,2270384 0,1226641 0,03073938   60 68 59 52
-0,1453834 0,3579183 0,1347886   -155,9594 -0,1914623 1,302548   -5,110464 -4,173891 2,764014   0,1688889   0,1829876 0,09950984 0,1547901 0,2382679   64 57 62 69
-0,1450981 0,3579057 0,1350527   -155,9634 -0,0844584 1,096118   -3,548119 0,5854058 -2,810592   0,2266667   0,2489185 0,2606266 0,2044148 0,1927067   69 70 66 65
-0,1450044 0,3578361 0,1350713   -155,858 0,08747458 1,082102   3,042291 8,36809 -6,613378   0,2488889   0,2313418 0,3987036 0,266436 0,09907422   68 81 71 57
-0,1450669 0,358024 0,1347918   -155,9289 -0,002687606 1,217127   1,035917 2,453119 3,63027   0,2577778   0,1969439 0,2460063 0,3186117 0,2695493   65 69 75 71
-0,1451981 0,3582392 0,1348446   -155,905 -0,01328763 1,276506   -1,408994 -3,022861 5,832112   0,2577778   0,2296853 0,169228 0,2858703 0,3463275   68 63 72 77
-0,1451947 0,3586106 0,1345394   -155,9922 -0,1883886 1,49209   -1,899716 -5,57102 8,248881   0,2577778   0,2309992 0,1195788 0,2845564 0,3959768   68 59 72 81
-0,145096 0,3582992 0,1344621   -155,8689 0,02243631 1,535427   1,081693 1,071716 7,767619   0,2577778   0,1693844 0,1908187 0,3461711 0,3247368   63 65 77 75
-0,1451241 0,358328 0,1344303   -155,8674 0,1665457 1,570345   3,743584 10,64801 2,347622   0,2577778   0,1278215 0,3407816 0,3877341 0,1747739   60 77 81 63
-0,1452485 0,359095 0,1341111   -155,9384 -0,09065867 1,636529   -2,083736 -3,392843 3,033054   0,2577778   0,2613757 0,1935188 0,2541799 0,3220367   70 65 70 75
-0,1451562 0,3588404 0,1341174   -155,8824 0,09494759 1,627662   -0,4508964 -2,147938 1,719511   0,2577778   0,262062 0,2191033 0,2534935 0,2964523   70 67 70 73
-0,1451156 0,359111 0,1340886   -155,8945 0,2946678 1,717458   1,316526 11,55977 2,427884   0,2488889   0,1090124 0,3402078 0,3887655 0,15757   58 77 81 62
-0,1450796 0,3594982 0,1340009   -155,9792 0,1960015 1,787812   -2,901758 3,031612 4,804496   0,2355556   0,1571945 0,2178267 0,3139167 0,2532844   62 67 75 70
-0,1450454 0,3594507 0,134219   -156,0625 0,2018707 1,795629   -5,039511 -2,783907 2,345119   0,2266667   0,2310546 0,1753764 0,2222788 0,2779569   68 64 67 72
-0,1450536 0,3599584 0,1336198   -155,8403 0,241153 1,728679   4,165184 1,354541 -1,773985   0,2222222   0,2264167 0,2535075 0,2180278 0,190937   68 70 67 65
-0,145133 0,3600346 0,1334273   -155,6697 0,3651655 1,474176   11,78373 4,898836 -9,64357   0,2177778   0,2652251 0,3632018 0,1703304 0,07235372   71 79 63 55
-0,1450996 0,360316 0,1336632   -155,6985 0,3850762 1,566736   4,253989 4,317688 -4,858283   0,2133333   0,2187393 0,3050931 0,2079274 0,1215736   67 74 66 59
-0,1452346 0,3605581 0,1331996   -155,4635 0,5111865 1,522492   6,184833 4,380622 1,449477   0,2177778   0,1594768 0,2470892 0,2760788 0,1884663   62 69 72 65
-0,1450348 0,3607369 0,1328178   -155,3599 0,6158276 1,467118   10,15913 6,922528 -2,988536   0,2177778   0,1784379 0,3168884 0,2571177 0,1186671   64 75 70 59
-0,1451213 0,3613171 0,1326321   -155,4777 0,453368 1,430987   -0,4257193 -1,734554 -2,745157   0,2177778   0,2625749 0,2278838 0,1729807 0,2076717   71 68 63 66
-0,1453639 0,3611898 0,132594   -155,5552 0,5140265 1,818763   -5,859364 -3,054029 10,54934   0,2177778   0,1428247 0,0817441 0,2927309 0,3538114   61 56 73 78
-0,144725 0,3614103 0,1324988   -155,3939 0,7160735 1,791344   2,514491 7,88115 10,81069   0,2177778   0,03085941 0,1884824 0,4046961 0,2470731   52 65 82 69
-0,1444222 0,3618377 0,1324453   -155,4016 0,8204319 1,758497   4,60784 9,192144 -1,807966   0,2177778   0,143936 0,3277789 0,2916195 0,1077767   61 76 73 58
-0,1447158 0,3618627 0,1322134   -155,6013 0,6361594 2,265433   -6,221911 -2,39742 14,22264   0,2177778   0,09952554 0,05157715 0,33603 0,3839784   57 54 76 80
-0,1441468 0,3617926 0,1317116   -155,559 0,856373 2,486711   -4,721823 1,078232 21,84637   0,2177778   0 0,01009639 0,4470238 0,4254591   50 50 85 84
-0,1444162 0,3621853 0,1315076   -155,3422 0,9650057 2,788957   7,772812 9,865371 15,70569   0,2177778   0 0,1593746 0,4734884 0,276181   50 62 87 72
-0,1441924 0,3618698 0,1318764   -155,2483 1,101176 2,718933   9,320966 7,344069 6,966627   0,2133333   0,07022639 0,2171078 0,3564403 0,2095589   55 67 78 66
-0,1443951 0,361884 0,1315903   -155,4203 0,8849966 2,847233   -2,341457 -2,400268 1,748289   0,2177778   0,2242976 0,1762922 0,211258 0,2592633   67 64 66 70
-0,1440716 0,3621177 0,1318404   -155,2754 1,219775 2,339087   -0,8120713 3,557972 -11,39533   0,2177778   0,2961514 0,3673108 0,1394042 0,06824473   73 79 61 55
-0,1439234 0,3624076 0,132157   -155,2141 1,116416 2,133969   6,18529 6,942578 -21,39788   0,2177778   0,3623308 0,5011824 0,07322472 0   78 90 55 50
-0,1442393 0,3625268 0,1319205   -155,0558 1,179903 1,541277   6,586749 -1,196159 -23,93427   0,2177778   0,469082 0,4451588 0 0   87 85 50 50
-0,1442929 0,3625938 0,1313618   -154,4765 1,152233 0,8410192   22,12779 1,074491 -38,78842   0,2177778   0,5949171 0,6164069 0 0   97 99 50 50
-0,144626 0,3625002 0,1317627   -154,2247 1,314234 0,2761868   24,93342 4,029911 -37,95264   0,2177778   0,557005 0,6376032 0 0   94 101 50 50
-0,1450037 0,362835 0,1318278   -153,8579 1,104502 -0,1457935   18,55862 -1,431914 -29,60432   0,2177778   0,5281401 0,4995019 0 0   92 89 50 50
-0,1452219 0,3623388 0,1322212   -153,5328 1,230963 -0,4124433   20,75771 -2,498126 -20,65886   0,2177778   0,4493476 0,3993851 0 0,03617042   85 81 50 52
-0,1452447 0,3621219 0,131948   -153,1169 1,195204 -0,7541925   22,2285 2,721046 -18,25193   0,2177778   0,3730867 0,4275075 0,0624689 0,008047985   79 84 54 50
-0,1458092 0,3622229 0,1326434   -152,7 1,105553 -0,5056199   24,98286 -3,762295 -2,795294   0,2177778   0,2833537 0,2081078 0,1522019 0,2274478   72 66 62 68
-0,1452148 0,3619802 0,1323962   -152,8211 1,086028 0,1886045   8,873732 -3,27526 28,28386   0,2177778   0 0 0,4678637 0,5333689   50 50 87 92
-0,1450819 0,3618668 0,1319848   -153,1152 0,921416 1,443619   -12,45664 -5,524085 58,47705   0,2177778   0 0 0,7473074 0,8577891   50 50 109 118
-0,1439507 0,3619136 0,1317103   -153,4794 1,235541 2,737181   -19,74789 4,485381 76,45714   0,2177778   0 0 1 0,9374954   50 50 130 124
-0,1436929 0,3621652 0,1315468   -153,6713 1,421776 4,590113   -16,68316 15,01076 94,39464   0,2177778   0 0 1 1   50 50 130 130
-0,1426847 0,3625982 0,1311024   -154,0304 1,473776 5,235892   -16,53027 7,147025 74,9612   0,2177778   0 0 1 0,8959195   50 50 130 121
-0,1418719 0,3630428 0,1303073   -154,358 1,724872 6,916585   -20,6007 9,092856 69,79404   0,2177778   0 0 1 0,8247896   50 50 130 115
-0,1403708 0,3635378 0,1293377   -154,612 1,929181 8,107486   -17,44763 13,66214 86,14764   0,2177778   0 0 1 0,9426328   50 50 130 125
-0,1392963 0,3647113 0,1286292   -154,5172 2,338146 8,827752   -4,775381 18,3982 57,33489   0,2177778   0 0 0,9751087 0,6071446   50 50 128 98
-0,1383546 0,3658294 0,1271079   -154,3211 2,302752 8,43365   8,727247 11,2071 9,784908   0,2177778   0,007857747 0,2319996 0,4276978 0,2035559   50 68 84 66
-0,1385408 0,3662539 0,1272523   -154,1055 2,687551 8,222701   12,35227 10,48214 -18,1515   0,2177778   0,2944714 0,5041141 0,1410842 0   73 90 61 50
-0,1376466 0,3681793 0,1261174   -153,7904 3,159787 6,443708   15,92145 25,71101 -59,69813   0,2177778   0,557649 1 0 0   94 130 50 50
-0,1378235 0,3708546 0,1252528   -153,2935 3,312011 3,615724   24,35939 18,73376 -138,209   0,2177778   1 1 0 0   130 130 50 50
-0,1385486 0,3737835 0,1245707   -152,5302 3,477796 -0,1543223   37,80434 9,540241 -197,9405   0,2177778   1 1 0 0   130 130 50 50
-0,1401336 0,3771238 0,1244082   -151,5949 3,340863 -4,831143   50,95815 0,8655438 -253,4055   0,2177778   1 1 0 0   130 130 50 50
-0,1423553 0,3798296 0,1246405   -150,2884 3,387543 -9,698156   67,25497 -2,707574 -286,3145   0,2177778   1 1 0 0   130 130 50 50
-0,1451488 0,3815696 0,1250681   -149,0184 3,575062 -14,57662   77,29507 7,025965 -292,3636   0,2177778   1 1 0 0   130 130 50 50
-0,147157 0,3821856 0,1253186   -148,204 3,8572 -16,81306   62,53085 14,08967 -213,4467   0,2177778   1 1 0 0   130 130 50 50
-0,1507691 0,3823216 0,126236   -146,9311 4,772681 -20,6953   62,61646 35,9285 -183,5601   0,2177778   1 1 0 0   130 130 50 50
-0,1537357 0,3812858 0,1269186   -145,7646 5,299754 -23,8647   73,1807 43,27654 -211,5487   0,2177778   1 1 0 0   130 130 50 50
-0,1563911 0,379921 0,1284284   -144,747 5,763545 -25,11649   65,52279 29,72584 -132,6355   0,2177778   1 1 0 0   130 130 50 50
-0,1577783 0,3793214 0,1292575   -144,2243 5,42359 -24,25268   46,21161 3,71506 -11,63942   0,2177778   0,2970214 0,3713226 0,1385342 0,06423296   73 79 61 55
-0,1582636 0,3795652 0,1303218   -144,2665 5,637302 -20,99973   14,41678 -3,787271 123,5026   0,2177778   0 0 1 1   50 50 130 130
-0,1581706 0,380014 0,1307385   -144,5328 5,992363 -18,37608   -9,256879 17,06318 176,2977   0,2177778   0 0 1 1   50 50 130 130
-0,1576363 0,380799 0,1310478   -145,8176 6,815248 -11,85925   -46,53479 35,3383 274,2138   0,2177778   0 0 1 1   50 50 130 130
-0,1559122 0,3826895 0,1302931   -147,5654 6,968904 -4,860791   -90,9776 29,29614 405,4578   0,2177778   0 0 1 1   50 50 130 130
-0,153267 0,3857377 0,1298375   -149,64 6,551923 1,545579   -114,6719 -7,899726 402,144   0,2088889   0 0 1 1   50 50 130 130
-0,1500762 0,3884412 0,1278483   -151,1666 6,318807 6,76687   -108,0357 -19,50287 348,8292   0,2044444   0 0 1 1   50 50 130 130
-0,1482112 0,3912917 0,1267285   -151,191 6,111278 10,69604   -46,52884 -13,21932 274,5134   0,2044444   0 0 1 1   50 50 130 130
-0,1468086 0,3920646 0,125777   -150,9793 6,377451 11,90794   5,619038 1,759325 154,2317   0,2   0 0 1 1   50 50 130 130
-0,1447493 0,393888 0,1238491   -149,8213 6,849591 12,60985   41,09062 22,14935 57,41404   0,2044444   0 0 1 0,5570913   50 50 130 94
-0,143523 0,3952351 0,1216109   -148,4629 7,174003 10,99677   75,49149 23,8965 -27,33479   0,2044444   0,2388273 0,7167574 0,1700616 0   69 107 63 50
-0,1422843 0,3964599 0,1201432   -146,9662 7,418493 8,096259   85,65474 17,06701 -135,4074   0,2044444   1 1 0 0   130 130 50 50
-0,1411337 0,3978235 0,1188722   -145,7749 7,474864 4,448031   80,63995 9,025837 -196,4619   0,2044444   1 1 0 0   130 130 50 50
-0,1395442 0,3983058 0,1179225   -145,0476 7,48155 1,013186   57,5568 1,891705 -212,4918   0,2   1 1 0 0   130 130 50 50
-0,1387625 0,3981932 0,1179618   -144,798 7,529575 -0,4436669   29,3078 1,641323 -146,7507   0,1911111   1 1 0 0   130 130 50 50
-0,1368289 0,3980749 0,1182677   -144,5116 7,190589 -2,806718   16,07937 -8,728806 -114,5969   0,16   1 1 0 0   130 130 50 50
-0,1359537 0,3974289 0,1191278   -144,4692 6,927083 -3,886981   9,863872 -18,07472 -103,2992   0,08444444   1 0,9366895 0 0   130 124 50 50
-0,1341203 0,3959547 0,1189956   -144,7602 6,133534 -4,163   -7,458786 -31,71157 -40,68837   0   0,7239994 0,08976799 0 0   0 0 0 0
-0,1321449 0,394596 0,1189201   -145,1889 5,721582 -3,464687   -21,59267 -36,16496 12,66879   0   0,2349618 0 0 0,4883375   0 0 0 0
-0,1305403 0,3925059 0,1189778   -145,4762 5,146778 -2,029233   -21,48006 -29,60263 64,0129   0   0 0 0,3441027 0,9361553   0 0 0 0
-0,1293565 0,3905107 0,1181924   -145,7494 4,737357 0,2385535   -16,81408 -29,52671 111,097   0   0 0 0,8157029 1   0 0 0 0
-0,1286666 0,3894089 0,117581   -145,8733 4,430007 1,394269   -11,9119 -21,50308 102,7048   0   0 0 0,8120176 1   0 0 0 0
-0,1274928 0,3876773 0,1164601   -146,2202 3,587929 4,074648   -14,12244 -34,48278 115,0826   0   0 0 0,8059984 1   0 0 0 0
-0,1258317 0,3867056 0,115488   -146,7461 2,843264 6,511112   -26,18312 -47,60222 153,505   0   0 0 1 1   0 0 0 0
-0,124248 0,3850023 0,1136887   -147,1728 2,300054 8,131149   -28,57996 -38,63617 121,6948   0   0 0 0,8305862 1   0 0 0 0
-0,1231492 0,3835112 0,1132031   -147,5668 2,449291 8,974354   -24,62306 -11,81915 73,89712   0   0 0 0,6207797 0,8571627   0 0 0 0
-0,1223686 0,3817087 0,1124081   -147,4874 2,47162 9,468781   -9,438153 5,146985 40,12889   0   0 0 0,4527587 0,349819   0 0 0 0
-0,1221595 0,3808147 0,1117404   -147,3303 2,429561 9,62743   7,096696 -0,5919158 19,59225   0   0 0 0,1900033 0,2018416   0 0 0 0
-0,1213711 0,3789116 0,1104785   -146,9078 2,412424 9,352149   17,38949 -1,775869 -3,498967   0   0,05274836 0,01723097 0 0   0 0 0 0
-0,1209574 0,3769353 0,1096511   -146,5014 2,350074 9,105361   24,86613 -2,384593 -15,66204   0   0,1804663 0,1327744 0 0   0 0 0 0
-0,1203646 0,374626 0,1092812   -146,0224 1,836018 8,82028   26,56214 -17,29216 -15,95604   0   0,332482 0 0 0,01336126   0 0 0 0
-0,1197567 0,372981 0,1095376   -146,0119 1,337668 8,614476   14,68595 -30,37211 -14,72651   0   0,4509863 0 0 0,156456   0 0 0 0
-0,1196844 0,3703142 0,1095655   -146,191 1,053161 8,493391   -5,057363 -23,48566 -9,806652   0   0,3329231 0 0 0,1367901   0 0 0 0
-0,119647 0,3696015 0,109534   -146,2541 0,8712937 8,381107   -7,266984 -13,99121 -7,001052   0   0,2099226 0 0 0,06990159   0 0 0 0
-0,1199429 0,3679972 0,1102866   -146,5588 0,9268888 8,314235   -11,03529 -3,788157 -5,374679   0   0,09162836 0,01586522 0 0   0 0 0 0
-0,1197641 0,3666872 0,1105066   -146,7155 0,7989081 8,366368   -13,84183 -2,171564 -0,4421704   0   0,02613734 0 0 0,01729394   0 0 0 0
-0,119994 0,3660086 0,1110127   -146,7939 0,6066934 8,261259   -7,053209 -9,605841 -1,589267   0   0,1119511 0 0 0,08016574   0 0 0 0
-0,1201241 0,3656918 0,1113555   -146,7134 0,6363888 7,988333   0,06362891 -4,875567 -11,34104   0   0,1621661 0,06465477 0 0   0 0 0 0
-0,1204963 0,3655136 0,1114841   -146,5572 0,6843976 7,745525   7,101732 2,331119 -15,47198   0   0,1314086 0,178031 0 0   0 0 0 0
-0,1210699 0,3652661 0,111633   -146,4036 0,8604404 7,573173   9,292584 6,721533 -12,45478   0   0,05733248 0,1917631 0 0   0 0 0 0
-0,1216242 0,3651485 0,1116026   -146,0405 1,15974 7,173793   15,50168 14,26025 -17,15193   0   0,02891675 0,3141218 0 0   0 0 0 0
-0,1221495 0,3655442 0,1112716   -145,8877 1,279743 6,962358   15,47925 12,57905 -18,32439   0   0,05745336 0,3090343 0 0   0 0 0 0
-0,1229319 0,3654789 0,1109256   -145,8083 1,466019 6,778629   6,965776 9,188351 -11,8549   0   0,02666546 0,2104325 0 0   0 0 0 0
-0,1234345 0,3656397 0,1104473   -145,7969 1,812308 6,50927   2,722315 15,97691 -13,59262   0   0 0,2956953 0,02384292 0   0 0 0 0
-0,124197 0,3654521 0,1106761   -145,7612 2,060318 6,274702   1,413571 17,82894 -15,11779   0   0 0,3294673 0,02711156 0   0 0 0 0
-0,1241595 0,3657745 0,110317   -145,6526 2,011369 6,382967   4,328605 5,97183 -3,789103   0   0 0,09760933 0,02182728 0   0 0 0 0
-0,1248895 0,3653002 0,1105892   -145,9301 2,102496 5,742895   -5,06835 1,265328 -15,95419   0   0,1468886 0,1721952 0 0   0 0 0 0
-0,1255379 0,3656924 0,1109245   -145,9871 2,176322 5,689575   -10,03279 4,948566 -20,8017   0   0,1585313 0,2575026 0 0   0 0 0 0
-0,1264283 0,3657972 0,1113754   -146,0247 2,315032 5,173585   -2,836756 6,376063 -17,07924   0   0,1070318 0,2345531 0 0   0 0 0 0
-0,1270222 0,3658806 0,1116849   -145,9332 2,6042 4,491592   1,617276 12,83633 -35,93941   0   0,2310308 0,4877575 0 0   0 0 0 0
-0,127888 0,3662276 0,1122661   -145,8661 2,822483 3,601946   4,757987 15,2235 -47,14909   0   0,3192559 0,6237258 0 0   0 0 0 0
-0,1286459 0,3661439 0,1132334   -145,9361 2,789418 2,759975   -0,08697486 5,556525 -51,94842   0   0,463919 0,5750495 0 0   0 0 0 0
-0,1292018 0,3661404 0,1131864   -145,6584 3,068374 2,162657   6,230151 7,376719 -43,17859   0   0,3580187 0,5055531 0 0   0 0 0 0
-0,1301312 0,3661257 0,1135636   -145,6618 3,090862 1,465359   8,226912 9,04329 -38,83841   0   0,2979512 0,4788169 0 0   0 0 0 0
-0,1307426 0,366454 0,1141442   -145,5408 3,195605 0,9799103   3,526147 3,816933 -35,48233   0   0,316654 0,3929926 0 0   0 0 0 0
-0,1314912 0,3661397 0,1141625   -145,7055 3,24551 0,302533   -1,311491 4,639447 -34,88471   0   0,3024526 0,3952415 0 0   0 0 0 0
-0,1327657 0,3660328 0,1153245   -145,7149 3,321668 0,05427096   -5,221242 3,781871 -27,76913   0   0,2398726 0,31551 0 0   0 0 0 0
-0,1331557 0,3657927 0,1156163   -145,9963 3,348992 0,1543554   -8,72267 3,10444 -4,445318   0   0,01340878 0,07549758 0 0   0 0 0 0
-0,1336138 0,3651865 0,1156229   -146,0607 3,106333 0,1487456   -10,3729 -6,46002 2,834233   0   0,03625786 0 0 0,09294252   0 0 0 0
-0,133377 0,3656408 0,1159041   -146,1792 3,124481 0,3800661   -5,485829 -6,7353 6,771307   0   0 0 0,0003600717 0,1350661   0 0 0 0
-0,1347003 0,3651366 0,1168212   -146,3852 3,119432 0,6533753   -9,735699 0,3929464 15,13886   0   0 0 0,1553181 0,1474591   0 0 0 0
-0,1349896 0,3645044 0,1169949   -146,4389 3,220966 0,5726755   -7,791122 2,894548 5,778272   0   0 0 0,0867282 0,02883724   0 0 0 0
-0,1358877 0,3645509 0,1177591   -146,618 3,053091 0,9674823   -6,985003 -1,990209 9,423191   0   0 0 0,07432982 0,114134   0 0 0 0
-0,1360808 0,3643883 0,1179978   -146,6518 3,312598 0,6467651   -6,388537 2,748944 2,222683   0   0 0,005262613 0,04971627 0   0 0 0 0
-0,136596 0,3646425 0,1182399   -146,6395 3,226938 0,6109186   -0,6459032 5,215405 -10,69689   0   0,05481484 0,1591229 0 0   0 0 0 0
-0,1366358 0,3646882 0,1187414   -146,6168 3,310826 0,4031974   1,049192 -0,05317211 -7,307017   0   0,07360189 0,07253845 0 0   0 0 0 0
-0,1370855 0,3644806 0,1188478   -146,6795 3,129961 0,1618269   -1,199338 -2,909304 -13,47272   0   0,1638203 0,1056342 0 0   0 0 0 0
-0,1383545 0,3640505 0,1195759   -146,8003 2,860763 0,03775804   -5,505055 -13,50184 -10,96316   0   0,24465 0 0 0,02538683   0 0 0 0
-0,1382307 0,3637167 0,1201037   -147,0688 2,934205 -0,133014   -11,67982 -5,872689 -8,845209   0   0,147179 0,0297252 0 0   0 0 0 0
-0,1384373 0,3636797 0,1198287   -146,9595 2,898493 -0,1939026   -4,774009 1,131876 -6,949804   0   0,05817928 0,0808168 0 0   0 0 0 0
-0,1390494 0,3633334 0,1201479   -147,0584 2,574069 -0,02152431   0,3135674 -10,80405 3,344684   0   0,07459369 0 0 0,1414874   0 0 0 0
-0,1385976 0,3628586 0,1195854   -147,1399 2,396827 -0,4962517   -5,412587 -15,04993 -9,070457   0   0,2412039 0 0 0,05979474   0 0 0 0
-0,1390604 0,3626834 0,12001   -147,4259 2,618949 -0,04025978   -11,02522 1,346388 -0,5620623   0   0 0,0190845 0,007843256 0   0 0 0 0
-0,138852 0,3625418 0,1200768   -147,3888 2,64476 0,1176171   -7,46611 7,437966 18,41603   0   0 0 0,2585399 0,1097806   0 0 0 0
-0,1388503 0,362367 0,120544   -147,5018 2,438288 0,3358486   -2,276454 -5,419811 11,28323   0   0 0 0,05863418 0,1670304   0 0 0 0
-0,1387138 0,3625028 0,1203041   -147,4961 2,406398 0,38519   -3,220819 -7,150848 8,02717   0   0 0 0,008763216 0,1517802   0 0 0 0
-0,1392145 0,3628213 0,1207034   -147,4769 2,424179 0,6018447   0,7461534 -0,4232804 7,979867   0   0 0 0,07556587 0,08403148   0 0 0 0
-0,139327 0,3620124 0,1201519   -147,6056 2,236008 0,2963617   -3,284448 -5,111687 -2,664844   0   0,0777653 0 0 0,02446843   0 0 0 0
-0,1393821 0,3619525 0,1203241   -147,5022 2,212262 0,4010005   -0,7585127 -6,357474 -6,025314   0   0,1238279 0 0 0,003321595   0 0 0 0
-0,1393726 0,3618533 0,1204468   -147,6626 2,188662 0,2675058   -1,708828 -1,420366 -0,8656759   0   0,02286042 0 0 0,005546905   0 0 0 0
-0,1391808 0,3615578 0,1204087   -147,7205 2,227601 0,04280195   -6,547839 0,4601446 -10,74594   0   0,1028579 0,1120608 0 0   0 0 0 0
-0,1396141 0,3619709 0,1209403   -147,7345 2,128678 0,4031948   -2,157894 -1,799516 4,070664   0   0 0 0,02271149 0,0587018   0 0 0 0
-0,1394184 0,3617019 0,1208054   -147,8079 1,911579 0,05386901   -2,624354 -9,480621 0,3320112   0   0,0914861 0 0 0,09812632   0 0 0 0
-0,1389898 0,3615288 0,1212107   -147,538 2,167434 -0,02847683   5,894153 1,162667 -12,95012   0   0,1178746 0,1411279 0 0   0 0 0 0
-0,1402717 0,36098 0,1209542   -147,9135 1,78877 0,02214907   -3,166346 -3,684275 -0,9515963   0   0,04635871 0 0 0,02732678   0 0 0 0
-0,1400081 0,361203 0,1209222   -147,9713 1,837269 -0,07683083   -12,99772 -9,904931 -1,450617   0   0,1135555 0 0 0,08454314   0 0 0 0
-0,139908 0,3612803 0,1213398   -148,1927 1,719589 0,07096409   -8,376143 -2,075432 1,464448   0   0,006109844 0 0 0,0353988   0 0 0 0
-0,139808 0,3611346 0,1210505   -148,0931 1,804903 0,02504925   -3,653862 -0,9709756 3,056397   0   0 0 0,02085421 0,04027372   0 0 0 0
-0,1401127 0,3615156 0,1212862   -148,1739 1,957142 0,2637181   0,5644217 7,12658 5,782609   0   0 0,01343971 0,1290919 0   0 0 0 0
-0,1404489 0,3614272 0,1213581   -148,2175 1,806918 0,1688538   -3,73214 0,06043911 4,314129   0   0 0 0,04374569 0,0425369   0 0 0 0
-0,1404888 0,3613307 0,1211653   -148,3094 1,830278 0,2464796   -4,067222 -3,805904 -0,517153   0   0,04323057 0 0 0,03288751   0 0 0 0
-0,140656 0,3613901 0,1211247   -148,3777 1,740705 0,1421936   -4,805593 -1,986365 -0,7998064   0   0,02786171 0 0 0,01186559   0 0 0 0
-0,1408024 0,361549 0,1212076   -148,4725 1,745064 0,2298352   -4,891195 -2,556426 -0,4993317   0   0,03055758 0 0 0,02057094   0 0 0 0
-0,1415425 0,3610877 0,1211179   -148,7028 1,753288 0,1155663   -9,752636 0,3774755 -0,7988167   0   0,004213412 0,01176292 0 0   0 0 0 0
-0,1408149 0,3615145 0,1212322   -148,6413 1,87354 0,1765236   -5,065145 3,854277 -1,599347   0   0 0,05453623 0,0225493 0   0 0 0 0
-0,1410976 0,3617136 0,1213996   -148,6177 1,801148 0,09383821   2,550654 1,435802 -0,6518418   0   0 0,02087643 0,007839598 0   0 0 0 0
-0,1414932 0,3613041 0,121443   -148,4794 2,09649 0,01030739   4,858694 6,68849 -4,986475   0   0 0,1167496 0,01702015 0   0 0 0 0
-0,1410757 0,3614213 0,1212879   -148,5516 1,921241 -0,05349528   1,985317 3,602776 -4,419996   0   0,008172207 0,08022772 0 0   0 0 0 0
-0,1416919 0,3613752 0,121272   -148,5209 1,878711 -0,01895685   -1,245115 -6,533358 -0,8779256   0   0,07411284 0 0 0,05655432   0 0 0 0
-0,1409907 0,3618518 0,1215961   -148,7169 1,833701 -0,06600479   -4,95986 -2,626196 -0,3752847   0   0,03001481 0 0 0,02250911   0 0 0 0
-0,1411922 0,3617841 0,1213028   -148,5372 1,845294 -0,09194172   -0,4898062 -1,002493 -2,189542   0   0,03192035 0,01187048 0 0   0 0 0 0
-0,1415083 0,3620796 0,1215206   -148,4705 2,046458 0,2656615   7,391953 6,382705 9,94997   0   0 0 0,1633267 0,03567266   0 0 0 0
-0,1414472 0,3619972 0,1214298   -148,5615 1,932014 -0,0534728   -0,7283006 2,60157 1,154065   0   0 0,01447504 0,03755635 0   0 0 0 0
-0,1410288 0,3623411 0,1215451   -148,4473 2,084125 -0,04961548   0,6971726 1,130016 -9,458292   0   0,08328275 0,1058831 0 0   0 0 0 0
-0,14143 0,3622167 0,1214961   -148,5783 1,988521 -0,1224901   -0,5049124 1,695217 -2,070514   0   0,003752971 0,03765731 0 0   0 0 0 0
-0,1413263 0,3621896 0,121243   -148,6224 1,915146 -0,07851283   -5,253743 -5,069372 -0,8669187   0   0,05936291 0 0 0,04202453   0 0 0 0
-0,1411429 0,3622103 0,1211165   -148,5345 2,1167 -0,09441487   1,313321 3,845357 0,8422543   0   0 0,03003103 0,04687611 0   0 0 0 0
-0,1407949 0,3619065 0,1208602   -148,5485 1,91197 -0,4479354   2,216487 -0,09526825 -11,08266   0   0,1117792 0,1098739 0 0   0 0 0 0
-0,1409965 0,3623313 0,1209842   -148,4835 2,159243 -0,1310683   1,530759 1,276286 -1,099601   0   0 0,02375886 0,001766848 0   0 0 0 0
-0,1410085 0,3623939 0,1209694   -148,4449 2,158959 -0,1513839   3,106378 7,409645 8,896529   0   0 0 0,1630617 0,01486884   0 0 0 0
-0,1408079 0,362785 0,1209898   -148,2023 2,247242 -0,1144767   8,435195 2,639975 0,4977475   0   0 0,02142227 0,03137723 0   0 0 0 0
-0,1407643 0,3627568 0,1210472   -148,2216 2,207119 -0,139923   6,701189 1,444814 0,3438246   0   0 0,01100989 0,01788638 0   0 0 0 0
-0,1408128 0,3625419 0,1208697   -148,3614 2,135858 -0,2294089   -4,770804 -3,341525 -3,447961   0   0,06789486 0,001064356 0 0   0 0 0 0
-0,1407294 0,3625333 0,120963   -148,445 2,12364 -0,232135   -6,702105 -2,504391 -2,766355   0   0,05270746 0,002619633 0 0   0 0 0 0
-0,1404021 0,3625781 0,1210126   -148,5638 1,998327 -0,2649551   -6,073139 -4,125895 -1,066382   0   0,05192277 0 0 0,03059513   0 0 0 0
-0,1403673 0,3626766 0,1208189   -148,535 2,033332 -0,2902729   -2,700343 -2,709226 -1,744133   0   0,04453359 0 0 0,009650931   0 0 0 0
-0,1401035 0,3625106 0,1205084   -148,5558 1,835616 -0,5091064   0,2384944 -4,881335 -7,324525   0   0,1220586 0,0244319 0 0   0 0 0 0
-0,1404443 0,362891 0,1208824   -148,6046 2,10392 -0,02794397   -2,089229 2,117653 7,869853   0   0 0 0,09987506 0,057522   0 0 0 0
-0,1402714 0,3627314 0,1207091   -148,6471 1,923295 -0,1328233   -2,737422 2,630369 11,28847   0   0 0 0,1391884 0,08658103   0 0 0 0
-0,1402801 0,3627511 0,1206858   -148,6529 1,908745 -0,09334013   -1,447904 -5,855247 -1,961881   0   0,07817128 0 0 0,03893366   0 0 0 0
-0,1402923 0,3628447 0,1206286   -148,6591 1,916304 -0,03935659   -0,3611748 -0,2097269 2,803995   0   0 0 0,02594268 0,03013721   0 0 0 0
-0,1402704 0,3630231 0,1205178   -148,6819 1,983617 -0,00610701   -0,8692915 2,246145 2,616988   0   0 0 0,04863133 0,003708431   0 0 0 0
-0,1403301 0,3632097 0,1204095   -148,7024 2,039406 0,01185165   -1,2973 3,693033 1,536244   0   0 0,02156789 0,05229277 0   0 0 0 0
-0,1404658 0,363272 0,12051   -148,4525 2,117457 0,1161778   6,881548 4,015202 3,668536   0   0 0,003466658 0,07683738 0   0 0 0 0
-0,1405548 0,3634651 0,120359   -148,5573 2,187703 0,1952653   4,351035 4,448904 5,502399   0   0 0 0,09951302 0,01053496   0 0 0 0
