X	Y	Z	Yaw	Pitch	Roll	VYaw	VPitch	VRoll	Thrust	T1	T2	T3	T4	PWM1	PWM2	PWM3	PWM4
-0,02705031	0,0627492	-0,08309828	2,292747	0,04448485	-0,08393691	0,1703164	-0,7097523	-0,0649366	0	0,00116921	0,000639402	0	0	0	0	0	0
-0,02705524	0,06275949	-0,08310732	2,291369	0,05443833	-0,08272617	-0,08266909	0,5972077	0,07264481	0	0	0,001896208	0,000386974	0	0	0	0	0
-0,0270396	0,06277001	-0,08308913	2,293832	0,04761261	-0,08567229	0,1477429	-0,4095424	-0,1767671	0	0,000966906	0,001100074	0	0	0	0	0	0
-0,02707223	0,06277711	-0,08310301	2,285636	0,04722086	-0,09316664	-0,4917517	-0,02350482	-0,4496603	0	0,000932623	0,00183003	0	0	0	0	0	0
-0,02704385	0,06275449	-0,08311045	2,298813	0,05002503	-0,08694543	0,7905992	0,1682502	0,373272	0	0	0,001164683	0,000172318	0	0	0	0	0
-0,02705033	0,06277654	-0,0830925	2,285456	0,05484153	-0,08948262	-0,8013853	0,2889891	-0,1522312	0	0,000209653	0,001884462	0	0	0	0	0	0
-0,02704145	0,06279119	-0,08310183	2,286327	0,05576186	-0,08157522	0,05225648	0,05521987	0,474443	0	0	0,000954148	0,000271529	0	0	0	0	0
-0,02705365	0,06277356	-0,08308524	2,287818	0,05468291	-0,0808404	0,08944971	-0,06473722	0,04408917	0	0,000282223	0,001246407	0	0	0	0	0	0
-0,02705705	0,06276023	-0,08308986	2,292171	0,04634779	-0,08226975	0,261168	-0,500106	-0,08576079	0	0,000945086	0,00087183	0	0	0	0	0	0
-0,0270532	0,062772	-0,08310493	2,285463	0,04989827	-0,08180292	-0,4024879	0,2130284	0,02800981	0	7,80E-05	0,001502031	0	0	0	0	0	0
-0,02704976	0,06275175	-0,08310256	2,288437	0,04930207	-0,07783794	0,1784846	-0,0357721	0,2378985	0	8,32E-05	0,000997729	0	0	0	0	0	0
-0,02705906	0,06275189	-0,08309974	2,288206	0,0443167	-0,079294	-0,01387593	-0,2991216	-0,0873634	0	0,000736258	0,001024349	0	0	0	0	0	0
-0,02705334	0,06276774	-0,08309611	2,287928	0,05319374	-0,07971687	-0,01670834	0,5326213	-0,02537231	0	0	0,0018871	0,000242018	0	0	0	0	0
-0,02704959	0,06275138	-0,08309798	2,292237	0,04196598	-0,08103694	0,2585787	-0,6736643	-0,07920413	0	0,001143578	0,000635569	0	0	0	0	0	0
-0,02704588	0,06276058	-0,08309735	2,293428	0,04764204	-0,0779119	0,07146821	0,3405632	0,1875021	0	0	0,0014086	0,000225367	0	0	0	0	0
-0,02704714	0,06276575	-0,08310759	2,295538	0,05159868	-0,09007543	0,1265857	0,2373978	-0,7298102	0	0,00087718	0,002383949	0	0	0	0	0	0
-0,02704867	0,06277299	-0,08310734	2,289394	0,05353008	-0,07378355	-0,3686564	0,1158837	0,9775104	0	0	0,00041151	0,00089086	0	0	0	0	0
-0,0270365	0,06276743	-0,08311125	2,288744	0,05432749	-0,08220129	-0,03896706	0,0478447	-0,505063	0	0,000735956	0,001918196	0	0	0	0	0	0
-0,02704907	0,06276289	-0,08311202	2,291657	0,04947151	-0,08177402	0,1747366	-0,2913584	0,02563606	0	0,000588747	0,000995461	0	0	0	0	0	0
-0,02705886	0,06277419	-0,08308602	2,290437	0,05309595	-0,07775169	-0,07321344	0,2174662	0,2413393	0	0	0,001284603	0,000212248	0	0	0	0	0
-0,02705403	0,06277324	-0,08308756	2,289264	0,04694128	-0,07706603	-0,07032381	-0,3692798	0,04113964	0	0,000629388	0,000829654	0	0	0	0	0	0
-0,02703897	0,06278203	-0,08309075	2,290575	0,04416518	-0,08716948	0,07862075	-0,1665657	-0,6062058	0	0,001202815	0,001752987	0	0	0	0	0	0
-0,02705326	0,06276154	-0,0831008	2,289133	0,04388441	-0,08456944	-0,08653147	-0,01684603	0,1560019	0	0,000267694	0,00111169	0	0	0	0	0	0
-0,02705874	0,06276687	-0,08308917	2,289017	0,04962922	-0,07870992	-0,006952272	0,3446882	0,3515703	0	0	0,001276509	0,000405452	0	0	0	0	0
-0,02704095	0,06277829	-0,08310045	2,285073	0,05445214	-0,08009832	-0,2366061	0,2893745	-0,08330344	0	5,04E-05	0,001718182	0	0	0	0	0	0
-0,0270643	0,06277528	-0,08311433	2,289955	0,04993614	-0,08003418	0,2928824	-0,2709593	0,003848068	0	0,000568092	0,001024896	0	0	0	0	0	0
-0,02704212	0,06276679	-0,08311654	2,289623	0,05240909	-0,08627257	-0,01988407	0,1483768	-0,3743029	0	0,000564561	0,001909496	0	0	0	0	0	0
-0,02705464	0,06278372	-0,08310843	2,289717	0,05250771	-0,07813459	0,005607594	0,005916941	0,4882782	0	0	0,000824062	0,000237926	0	0	0	0	0
-0,0270608	0,06276514	-0,08310435	2,287113	0,04068156	-0,08576829	-0,1562402	-0,7095674	-0,4580212	0	0,001618456	0,001012952	0	0	0	0	0	0
-0,02706193	0,06276475	-0,08311485	2,289739	0,04363541	-0,0769759	0,1575562	0,1772302	0,5275421	0	0	0,000855801	0,000371367	0	0	0	0	0
-0,0270536	0,06278293	-0,08310469	2,286637	0,05745193	-0,08268128	-0,1861092	0,82899	-0,3423216	0	0	0,002572644	0,000234375	0	0	0	0	0
-0,02705438	0,06275912	-0,08309969	2,293176	0,04691947	-0,07632776	0,3923599	-0,6319464	0,3812104	0	0,000544819	0,000219315	0	0	0	0	0	0
-0,02704701	0,06277927	-0,08308551	2,28838	0,05566627	-0,07989899	-0,2877468	0,5248067	-0,2142737	0	0	0,002094733	6,82E-05	0	0	0	0	0
-0,02705818	0,06277405	-0,08310027	2,28784	0,04886862	-0,07795031	-0,03242963	-0,4078581	0,1169204	0	0,000581755	0,000743411	0	0	0	0	0	0
-0,02704758	0,06278276	-0,08309684	2,290786	0,05035199	-0,08629673	0,1767537	0,08900201	-0,500784	0	0,000771229	0,001956273	0	0	0	0	0	0
-0,0270498	0,06275997	-0,0830989	2,293111	0,04584532	-0,08584066	0,1395318	-0,2703997	0,02736384	0	0,000642989	0,001019096	0	0	0	0	0	0
-0,02705813	0,06276681	-0,08308726	2,290419	0,04240959	-0,08677394	-0,1615187	-0,2061432	-0,05599637	0	0,000705783	0,001141688	0	0	0	0	0	0
-0,02705739	0,06276569	-0,08310039	2,283292	0,04471464	-0,09082033	-0,4276649	0,1383025	-0,2427828	0	0,000565537	0,001736435	0	0	0	0	0	0
-0,02705292	0,06276236	-0,08310237	2,289375	0,04888739	-0,08101525	0,3650229	0,2503647	0,5883034	0	0	0,000961088	0,00051739	0	0	0	0	0
-0,02705023	0,06278017	-0,08311071	2,285704	0,05282208	-0,08553483	-0,2202983	0,2360811	-0,2711739	0	0,00036222	0,001890824	0	0	0	0	0	0
-0,02705635	0,06274923	-0,08310518	2,293842	0,04991736	-0,07620962	0,4883184	-0,1742833	0,5595113	0	0	0,000527475	0,000122305	0	0	0	0	0
-0,02704987	0,06276543	-0,08308265	2,291141	0,05210371	-0,0863637	-0,1620766	0,1311808	-0,6092438	0	0,000820663	0,002125099	0	0	0	0	0	0
-0,02706049	0,06277274	-0,08307519	2,288181	0,03586053	-0,08582207	-0,1776263	-0,9745886	0,03249803	0	0,001441706	0,000209739	0	0	0	0	0	0
-0,02704953	0,06275724	-0,08308783	2,290682	0,04447005	-0,08090921	0,150089	0,5165703	0,2947711	0	0	0,001475592	0,00044695	0	0	0	0	0
-0,02704232	0,0627674	-0,08307223	2,291834	0,05501686	-0,08553678	0,06912218	0,6328072	-0,2776537	0	0	0,002315997	5,00E-05	0	0	0	0	0
-0,02706375	0,06276471	-0,08306708	2,290095	0,0360869	-0,08547734	-0,1043699	-1,135795	0,003566437	0	0,001626133	7,63E-05	0	0	0	0	0	0
-0,02705195	0,06276008	-0,08307025	2,288262	0,04752117	-0,07311071	-0,1099632	0,6860548	0,7419963	0	0	0,001150377	0,001172156	0	0	0	0	0
-0,02706053	0,06277499	-0,08305918	2,286197	0,04687115	-0,08267196	-0,1238678	-0,03900103	-0,5736738	0	0,000970683	0,001830104	0	0	0	0	0	0
-0,0270461	0,06277778	-0,08306858	2,290163	0,05400507	-0,07951934	0,2379079	0,4280346	0,1891566	0	0	0,001574122	0,000362049	0	0	0	0	0
-0,02706713	0,06277563	-0,08306977	2,292601	0,03358968	-0,0914832	0,1463124	-1,224921	-0,7178301	0	0,002521686	0,000743638	0	0	0	0	0	0
-0,0270472	0,06275439	-0,08306359	2,292346	0,04878448	-0,07915866	-0,01533505	0,9116862	0,7394711	0	0	0,001451646	0,001347416	0	0	0	0	0
-0,02705937	0,06274845	-0,08307438	2,291617	0,0403535	-0,0888086	-0,04368773	-0,5058578	-0,5789957	0	0,001569404	0,001364759	0	0	0	0	0	0
-0,02703572	0,06273106	-0,08307403	2,29092	0,03852456	-0,08396598	-0,04181377	-0,1097363	0,2905569	0	0,000273594	0,000824612	0	0	0	0	0	0
-0,02706917	0,06277922	-0,08306286	2,289269	0,0429505	-0,08126471	-0,09910564	0,2655558	0,1620757	0	0	0,001345632	4,45E-05	0	0	0	0	0
-0,02706372	0,06275654	-0,08306845	2,293083	0,04290963	-0,08862481	0,2288528	-0,002451981	-0,4416052	0	0,000901209	0,001754498	0	0	0	0	0	0
-0,02706284	0,06275664	-0,08308487	2,297735	0,03783818	-0,09527708	0,2791495	-0,3042869	-0,3991352	0	0,001277811	0,001426001	0	0	0	0	0	0
-0,02707472	0,06275327	-0,08308303	2,289286	0,04237092	-0,08655535	-0,5069436	0,2719641	0,5233029	0	0	0,001037924	0,000353423	0	0	0	0	0
-0,02706684	0,06278387	-0,08308788	2,288314	0,04417566	-0,08477157	-0,05836475	0,1082844	0,1070262	0	0,000190649	0,00129073	0	0	0	0	0	0
-0,02706967	0,06278327	-0,08308993	2,292325	0,0447969	-0,0778135	0,2406831	0,03727414	0,4174837	0	0	0,000845894	0,000124592	0	0	0	0	0
-0,02706169	0,06274774	-0,08307799	2,292054	0,03779688	-0,09186669	-0,01623627	-0,4200005	-0,8431897	0	0,001803888	0,001719825	0	0	0	0	0	0
-0,02707307	0,06278281	-0,08306767	2,288239	0,03752524	-0,07898246	-0,2289243	-0,01629841	0,7730518	0	0	0,000375727	0,000342181	0	0	0	0	0
-0,02706888	0,06277402	-0,0830651	2,290252	0,03882943	-0,08605827	0,1207922	0,0782515	-0,4245477	0	0,000818585	0,001751676	0	0	0	0	0	0
-0,02705724	0,06277656	-0,0830601	2,290656	0,03474722	-0,08754157	0,02424712	-0,2449321	-0,08899776	0	0,000861873	0,001066954	0	0	0	0	0	0
-0,0270698	0,06276825	-0,08305878	2,288889	0,03803065	-0,08270934	-0,106015	0,1970052	0,2899333	0	0	0,001114472	4,02E-05	0	0	0	0	0
-0,0270633	0,06275605	-0,08306167	2,290179	0,04096465	-0,08298636	0,07737622	0,17604	-0,01662117	0	0,000260798	0,001432171	0	0	0	0	0	0
-0,02706393	0,06276843	-0,08306321	2,287114	0,04245272	-0,0867812	-0,1838919	0,08928408	-0,2276896	0	0,00058169	0,001609313	0	0	0	0	0	0
-0,02705437	0,06276345	-0,08306452	2,292178	0,05008212	-0,07673477	0,3038257	0,4577632	0,6027846	0	0	0,001123147	0,000794022	0	0	0	0	0
-0,0270692	0,06276985	-0,08306636	2,289554	0,03606674	-0,08332019	-0,1574561	-0,8409216	-0,3951248	0	0,001708581	0,000748072	0	0	0	0	0	0
-0,0270691	0,06276473	-0,08306767	2,289372	0,03835508	-0,08127304	-0,01088617	0,1373002	0,1228288	0	0,000169051	0,001210753	0	0	0	0	0	0
-0,02707351	0,06277305	-0,08307283	2,288011	0,03910185	-0,08539907	-0,08168205	0,04480644	-0,2475612	0	0,000665727	0,001537377	0	0	0	0	0	0
-0,02706947	0,06278002	-0,08307689	2,289503	0,0425832	-0,08142956	0,08953554	0,2088804	0,2381703	0	0	0,001210838	5,86E-05	0	0	0	0	0
-0,02706945	0,06277444	-0,08306708	2,28773	0,04709802	-0,07758644	-0,1064155	0,2708885	0,2305864	0	0	0,001287147	0,000196591	0	0	0	0	0
-0,02706157	0,06277671	-0,08307067	2,287724	0,04014974	-0,08704026	-0,000314712	-0,4168958	-0,567228	0	0,001453029	0,001422232	0	0	0	0	0	0
-0,02706566	0,0627794	-0,08306527	2,289713	0,04227234	-0,08242612	0,119333	0,1273559	0,2768477	0	0	0,001097493	2,67E-06	0	0	0	0	0
-0,02706917	0,06277923	-0,08306286	2,289273	0,04291965	-0,08125877	-0,02640719	0,03883831	0,07004128	0	0,000274512	0,001210581	0	0	0	0	0	0
-0,0270695	0,06277505	-0,08306415	2,288599	0,04005446	-0,07859877	-0,04041187	-0,1719109	0,1595996	0	0,000397754	0,000855022	0	0	0	0	0	0
-0,02705201	0,06276047	-0,08306582	2,291269	0,04323545	-0,0797773	0,1601884	0,1908587	-0,07071183	0	0,000245272	0,001491698	0	0	0	0	0	0
-0,02706467	0,06276498	-0,0830683	2,289634	0,03700853	-0,08642603	-0,09811859	-0,3736145	-0,3989233	0	0,001266713	0,001259654	0	0	0	0	0	0
-0,02706163	0,06277535	-0,08306592	2,291827	0,03792508	-0,08765413	0,1315782	0,05499278	-0,0736855	0	0,000515983	0,00138447	0	0	0	0	0	0
-0,02706859	0,06276387	-0,08306834	2,29057	0,03865261	-0,08668119	-0,07538781	0,0436522	0,05837593	0	0,000378258	0,001238614	0	0	0	0	0	0
-0,02706125	0,06278091	-0,08306938	2,288405	0,04295737	-0,0896928	-0,1299474	0,258285	-0,180696	0	0,000389765	0,001765483	0	0	0	0	0	0
-0,02706525	0,06278474	-0,08306896	2,287375	0,04669948	-0,08420769	-0,06176937	0,2245262	0,3291059	0	0	0,001204492	0,00017855	0	0	0	0	0
-0,02708011	0,0627749	-0,08306845	2,289327	0,04241529	-0,08069295	0,1171014	-0,2570508	0,2108838	0	0,000428944	0,000763148	0	0	0	0	0	0
-0,02708291	0,06277651	-0,08306415	2,290859	0,04194388	-0,08075362	0,09191018	-0,02828496	-0,003640197	0	0,000420023	0,00120233	0	0	0	0	0	0
-0,02709154	0,06280126	-0,08306473	2,289453	0,04406508	-0,07726988	-0,0843714	0,1272721	0,2090241	0	0	0,001131598	4,25E-06	0	0	0	0	0
-0,02710671	0,06281922	-0,08305659	2,290279	0,05102884	-0,07914376	0,04956713	0,4178243	-0,1124326	0	0	0,001831983	2,42E-05	0	0	0	0	0
-0,02710458	0,06280866	-0,08306842	2,289572	0,0462991	-0,07928197	-0,04238597	-0,2837834	-0,00829248	0	0,000621905	0,00098032	0	0	0	0	0	0
-0,02711899	0,06282625	-0,0830747	2,291608	0,05232024	-0,07289188	0,1221511	0,3612674	0,3834045	0	0	0,001229984	0,000538955	0	0	0	0	0
-0,02713629	0,06283939	-0,0830696	2,288631	0,04775288	-0,07250133	-0,1786419	-0,2740408	0,02343307	0	0,000498092	0,000905068	0	0	0	0	0	0
-0,02714089	0,06283669	-0,0830853	2,292094	0,04939228	-0,08411454	0,2077957	0,09836379	-0,6967914	0	0,00094565	0,002130223	0	0	0	0	0	0
-0,02713629	0,06284778	-0,08308516	2,290261	0,05117451	-0,0772003	-0,1099775	0,1069337	0,4148538	0	0	0,000975828	0,00026153	0	0	0	0	0
-0,02714135	0,0628438	-0,08309155	2,288348	0,05432659	-0,07905976	-0,114784	0,189124	-0,1115672	0	0,000169775	0,001634555	0	0	0	0	0	0
-0,02712669	0,0628089	-0,08308981	2,295659	0,05582877	-0,07631327	0,4386369	0,09013098	0,1647888	0	0	0,001246763	5,01E-05	0	0	0	0	0
-0,02712616	0,06283253	-0,08307598	2,287895	0,0535262	-0,07434358	-0,4657879	-0,1381538	0,118181	0	0,000228147	0,001022363	0	0	0	0	0	0
-0,0271359	0,06285323	-0,08307117	2,285956	0,05429752	-0,06984586	-0,1163433	0,04627897	0,2698632	0	0	0,00101785	0,000160659	0	0	0	0	0
-0,02713246	0,06285734	-0,08307999	2,28471	0,05389152	-0,07601415	-0,07477269	-0,02436022	-0,3700967	0	0,000615683	0,001644793	0	0	0	0	0	0
-0,02711976	0,06281672	-0,08308128	2,298069	0,04988667	-0,07716271	0,8015569	-0,2402906	-0,06891342	0	0,000581964	0,001099117	0	0	0	0	0	0
-0,02712603	0,06283212	-0,08307437	2,29278	0,05183061	-0,07492483	-0,317387	0,1166363	0,134272	0	0	0,001249919	2,00E-05	0	0	0	0	0
-0,02712677	0,06283481	-0,08307719	2,292238	0,06027998	-0,07563359	-0,03248685	0,5069611	-0,042525	0	0	0,001908622	0,0003109	0	0	0	0	0
-0,02714315	0,06284547	-0,08308516	2,292102	0,05086751	-0,07729173	-0,0081539	-0,564747	-0,09948875	0	0,000928478	0,000816334	0	0	0	0	0	0
-0,02711927	0,06283865	-0,08310169	2,287475	0,06428345	-0,07468103	-0,2776188	0,8049546	0,156642	0	0	0,002037957	0,000857621	0	0	0	0	0
-0,02714248	0,06282806	-0,08309025	2,294876	0,04810444	-0,08688869	0,4440585	-0,9707387	-0,732458	0	0,002091039	0,00111165	0	0	0	0	0	0
-0,02712702	0,06284475	-0,08310729	2,29064	0,06146101	-0,07483092	-0,2541728	0,8013927	0,7234645	0	0	0,001440847	0,001391158	0	0	0	0	0
-0,02711998	0,06283163	-0,08309961	2,294616	0,0596339	-0,07353151	0,2385659	-0,1096259	0,07796451	0	0,000170637	0,001144064	0	0	0	0	0	0
-0,02711829	0,06282261	-0,0830868	2,293983	0,05780397	-0,0720002	-0,03799431	-0,1097956	0,09187844	0	0,000159879	0,001096368	0	0	0	0	0	0
-0,02712037	0,06284031	-0,08307857	2,289576	0,054106	-0,07581808	-0,2644152	-0,2218777	-0,2290727	0	0,000668071	0,001306436	0	0	0	0	0	0
-0,02714667	0,06283928	-0,08307455	2,291583	0,04810147	-0,07427849	0,1204345	-0,3602716	0,09237555	0	0,000529666	0,000771152	0	0	0	0	0	0
-0,02711791	0,06282005	-0,08307995	2,293433	0,05846415	-0,07429896	0,1110075	0,6217601	-0,001228449	0	0	0,00195062	0,000462184	0	0	0	0	0
-0,02713905	0,0628472	-0,08307432	2,288906	0,05313154	-0,07696075	-0,271625	-0,3199565	-0,1597069	0	0,000717956	0,001140673	0	0	0	0	0	0
-0,02713581	0,06284885	-0,0830771	2,291386	0,04790172	-0,07445144	0,1487729	-0,3137883	0,1505584	0	0,000428727	0,000759185	0	0	0	0	0	0
-0,02714236	0,06286864	-0,08309073	2,290949	0,06096901	-0,07849387	-0,02619261	0,7840361	-0,2425454	0	0	0,00242121	0,000366242	0	0	0	0	0
-0,0271107	0,06283501	-0,08307748	2,290447	0,06271331	-0,06852336	-0,03016943	0,1046576	0,5982293	0	0	0,000818795	0,000644787	0	0	0	0	0
-0,02710527	0,06283577	-0,08309894	2,295175	0,05220631	-0,06881454	0,2836985	-0,6304187	-0,01747053	0	0,000813972	0,00059726	0	0	0	0	0	0
-0,02714429	0,0628363	-0,08307974	2,288661	0,04709829	-0,07298981	-0,3908293	-0,3064809	-0,2505161	0	0,000815912	0,001144916	0	0	0	0	0	0
-0,0270956	0,0628117	-0,0830769	2,288424	0,05611719	-0,07164723	-0,01419065	0,5411333	0,08055507	0	0	0,001738222	0,000466388	0	0	0	0	0
-0,02712956	0,0628618	-0,08306597	2,285566	0,05877059	-0,07130922	-0,171518	0,1592038	0,02028014	0	0	0,001439722	5,41E-05	0	0	0	0	0
-0,02715442	0,06285665	-0,08307429	2,287334	0,04997066	-0,07823362	0,1061151	-0,5279952	-0,4154631	0	0,001226088	0,001169511	0	0	0	0	0	0
-0,02714685	0,06284678	-0,08306377	2,292936	0,05637188	-0,08021156	0,336098	0,3840724	-0,1186763	0	0	0,001868583	2,70E-05	0	0	0	0	0
-0,02710227	0,06282664	-0,08308928	2,29409	0,05369522	-0,07930157	0,06925093	-0,1605987	0,05459939	0	0,000362063	0,00111477	0	0	0	0	0	0
-0,02713541	0,06285638	-0,0830816	2,291103	0,06045562	-0,07645074	-0,1792284	0,405623	0,17105	0	0	0,001603637	0,000416722	0	0	0	0	0
-0,02714075	0,06284301	-0,08307593	2,286716	0,04999766	-0,07320362	-0,2631993	-0,6274761	0,1948268	0	0,000664709	0,00040971	0	0	0	0	0	0
-0,02714074	0,06285328	-0,08307211	2,287535	0,05758412	-0,0727806	0,04910936	0,4551865	0,0253808	0	0	0,001733453	0,000328603	0	0	0	0	0
-0,02711107	0,06283367	-0,08307529	2,286974	0,06041878	-0,07038253	-0,03365987	0,1700794	0,1438841	0	0	0,001334208	0,000214326	0	0	0	0	0
-0,02710032	0,06281314	-0,08307397	2,291989	0,06032497	-0,07558484	0,3008789	-0,005628604	-0,3121383	0	0,000470366	0,001665608	0	0	0	0	0	0
-0,02710861	0,06280767	-0,08308411	2,289518	0,04614422	-0,07971316	-0,148215	-0,8508438	-0,2476984	0	0,001434232	0,000655428	0	0	0	0	0	0
-0,0271096	0,0628263	-0,08307144	2,290699	0,04796013	-0,08055474	0,07083879	0,1089545	-0,05049472	0	0,000267486	0,001444598	0	0	0	0	0	0
-0,02711022	0,06282393	-0,08306355	2,289411	0,05372369	-0,07621179	-0,07729039	0,3458127	0,2605765	0	0	0,001384591	0,000381508	0	0	0	0	0
-0,02709999	0,06283282	-0,08306336	2,285243	0,05558688	-0,0747466	-0,2500672	0,1117916	0,08791102	0	0	0,001327215	8,11E-06	0	0	0	0	0
-0,02709862	0,06282372	-0,08306593	2,286932	0,05068356	-0,07893561	0,1013086	-0,2941989	-0,2513399	0	0,000828059	0,001253333	0	0	0	0	0	0
-0,02710244	0,0628217	-0,08306746	2,28635	0,0513133	-0,07976821	-0,03490441	0,03778443	-0,04995605	0	0,000296721	0,001398555	0	0	0	0	0	0
-0,02709999	0,06282295	-0,08306217	2,289085	0,04608448	-0,0762622	0,1640937	-0,3137284	0,2103603	0	0,000405145	0,000699378	0	0	0	0	0	0
-0,02709114	0,06282041	-0,08309137	2,293106	0,04739866	-0,07452211	0,2412839	0,07885053	0,1044052	0	8,80E-05	0,001193653	0	0	0	0	0	0
-0,02709886	0,06281204	-0,08309599	2,29192	0,04613273	-0,07431406	-0,0711678	-0,07595576	0,01248298	0	0,000345286	0,001116029	0	0	0	0	0	0
-0,02707997	0,06279629	-0,0831042	2,293788	0,05273954	-0,07568789	0,1120804	0,3964078	-0,08242993	0	0	0,001763112	8,45E-05	0	0	0	0	0
-0,02709633	0,06279522	-0,08311117	2,291166	0,05362218	-0,08492275	-0,1572987	0,05295855	-0,5540906	0	0,000814138	0,001992499	0	0	0	0	0	0
-0,02710505	0,0627786	-0,08311106	2,29298	0,05150973	-0,08492611	0,1088331	-0,1267466	-0,000201165	0	0,000461112	0,001237813	0	0	0	0	0	0
-0,02710749	0,06277036	-0,08310614	2,295668	0,05116389	-0,08676362	0,1612612	-0,02075087	-0,1102506	0	0,000486999	0,001468775	0	0	0	0	0	0
-0,02708602	0,06281132	-0,08309045	2,294575	0,05226364	-0,08222419	-0,06554591	0,06598512	0,2723653	0	0	0,001138498	3,87E-05	0	0	0	0	0
-0,02710163	0,06277677	-0,08310667	2,29595	0,0489965	-0,08553611	0,08245452	-0,1960277	-0,1987151	0	0,000760139	0,001348014	0	0	0	0	0	0
-0,02710021	0,06278544	-0,08310803	2,293788	0,05476654	-0,08709168	-0,1297042	0,3462017	-0,09333354	0	7,04E-05	0,001858117	0	0	0	0	0	0
-0,02709269	0,06279237	-0,08311606	2,286681	0,05324432	-0,08128348	-0,4264203	-0,09133351	0,3484911	0	2,32E-05	0,000905453	0	0	0	0	0	0
-0,02709656	0,06279397	-0,08311685	2,288837	0,05245093	-0,08396085	0,1293609	-0,04760286	-0,1606417	0	0,000523344	0,001477157	0	0	0	0	0	0
-0,02708763	0,06279378	-0,08312242	2,288827	0,05587769	-0,08780181	-0,000572204	0,2056052	-0,2304572	0	0,000344093	0,001872857	0	0	0	0	0	0
-0,02708493	0,06279311	-0,08311658	2,289249	0,0578796	-0,08945597	0,02532	0,1201142	-0,09924959	0	0,000294899	0,00169272	0	0	0	0	0	0
-0,02708088	0,06278801	-0,08312131	2,287719	0,05118068	-0,08362343	-0,09185296	-0,4019343	0,3499516	0	0,00037641	0,000596155	0	0	0	0	0	0
-0,02707121	0,06279924	-0,08310321	2,28786	0,05233706	-0,08237383	0,008482916	0,06938258	0,07497609	0	0,000156009	0,001341515	0	0	0	0	0	0
-0,02708266	0,06277818	-0,08310369	2,293468	0,04516323	-0,08018608	0,3364556	-0,4304291	0,1312644	0	0,000649393	0,0006918	0	0	0	0	0	0
-0,02707503	0,06278736	-0,08310581	2,28965	0,05130228	-0,08292732	-0,2290531	0,3683421	-0,1644736	0	0,000112382	0,001875112	0	0	0	0	0	0
-0,02708591	0,06279829	-0,08310607	2,294208	0,04888388	-0,08429611	0,2734703	-0,1451036	-0,08212774	0	0,000581354	0,001268824	0	0	0	0	0	0
-0,02707422	0,0628013	-0,08310435	2,290834	0,05414055	-0,08632489	-0,2024456	0,3153994	-0,121726	0	0,00012817	0,00184178	0	0	0	0	0	0
-0,02706633	0,06280342	-0,08310094	2,290648	0,05586849	-0,08126787	-0,01111505	0,1036766	0,3034203	0	0	0,00117162	0,000153103	0	0	0	0	0
-0,02707795	0,06281494	-0,08310989	2,285691	0,06167218	-0,0815946	-0,2974457	0,3482205	-0,01960378	0	0	0,001800492	0,000129392	0	0	0	0	0
-0,02707459	0,06280351	-0,08311365	2,29117	0,04949434	-0,0843095	0,3287595	-0,7306687	-0,1628938	0	0,001241714	0,000770263	0	0	0	0	0	0
-0,02707275	0,06279521	-0,08311608	2,290863	0,05607995	-0,0803103	-0,01845356	0,3951356	0,2399517	0	0	0,001519086	0,000392784	0	0	0	0	0
-0,02708073	0,06279258	-0,0831199	2,288026	0,05323818	-0,08498861	-0,1702305	-0,1705055	-0,280698	0	0,000768708	0,00149246	0	0	0	0	0	0
-0,02708124	0,06278734	-0,08311572	2,292374	0,04935331	-0,08491822	0,2608962	-0,233092	0,00422313	0	0,000584518	0,0011054	0	0	0	0	0	0
-0,02707372	0,06279711	-0,08311549	2,290367	0,04942928	-0,0839783	-0,1204202	0,004557958	0,05639512	0	0,000284537	0,001282239	0	0	0	0	0	0
-0,0270773	0,06280056	-0,08311565	2,289535	0,05173633	-0,08482963	-0,04991045	0,1384232	-0,05107944	0	0,000243589	0,001555162	0	0	0	0	0	0
-0,02707364	0,06280151	-0,08311889	2,284944	0,05395643	-0,08449573	-0,2754874	0,1332056	0,02003383	0	0,000152154	0,001497693	0	0	0	0	0	0
-0,02708296	0,06277604	-0,08312079	2,287708	0,05646861	-0,08207358	0,1658532	0,1507302	0,145329	0	0	0,001390823	4,00E-05	0	0	0	0	0
-0,02707497	0,06281614	-0,08311112	2,289338	0,04808433	-0,08063539	0,09780388	-0,5030558	0,08629096	0	0,000742276	0,00069785	0	0	0	0	0	0
-0,02707309	0,06281643	-0,08311514	2,290361	0,05540701	-0,08841974	0,06141174	0,4393604	-0,4670602	0	0,000357827	0,002344688	0	0	0	0	0	0
-0,02708485	0,06279173	-0,08311579	2,289772	0,05259048	-0,0849352	-0,03534787	-0,1689916	0,2090724	0	0,000283366	0,000997193	0	0	0	0	0	0
-0,02708007	0,06279939	-0,08312369	2,289729	0,05341878	-0,08765643	-0,002574916	0,04969788	-0,1632738	0	0,000455952	0,001623724	0	0	0	0	0	0
-0,02708242	0,06278564	-0,08310832	2,291958	0,04763361	-0,08247024	0,1337382	-0,3471098	0,311171	0	0,000384305	0,000642758	0	0	0	0	0	0
-0,02708111	0,0627913	-0,08312324	2,289082	0,05396895	-0,08832593	-0,1725766	0,3801197	-0,3513405	0	0,000314791	0,002154409	0	0	0	0	0	0
-0,02708082	0,06280217	-0,08311421	2,28884	0,05706393	-0,08743218	-0,01451966	0,1856988	0,05362485	0	6,44E-05	0,001577035	0	0	0	0	0	0
-0,02709578	0,06278583	-0,0831214	2,291177	0,05237575	-0,0872237	0,1402042	-0,2812903	0,01250846	0	0,000617261	0,001102196	0	0	0	0	0	0
-0,02709565	0,0627865	-0,08312167	2,291708	0,05138206	-0,08572423	0,03184312	-0,05962137	0,08996826	0	0,000313075	0,001221473	0	0	0	0	0	0
-0,02708885	0,06279159	-0,0831087	2,291282	0,05656853	-0,08819868	-0,02554888	0,3111873	-0,1484671	0	0,000153581	0,001907327	0	0	0	0	0	0
-0,02709603	0,06278121	-0,08312263	2,290752	0,05012438	-0,08536945	-0,0317859	-0,3866477	0,1697536	0	0,000569345	0,000798537	0	0	0	0	0	0
-0,02708084	0,06279454	-0,08310312	2,293706	0,05142069	-0,08529045	0,1772686	0,0777781	0,004740348	0	0,000256179	0,001440149	0	0	0	0	0	0
-0,02708244	0,0627846	-0,08308024	2,290093	0,04953013	-0,08667137	-0,2168222	-0,1134331	-0,08285551	0	0,000567701	0,001331437	0	0	0	0	0	0
-0,02709392	0,06278013	-0,08306985	2,293495	0,04566479	-0,08815949	0,2041336	-0,2319203	-0,08928654	0	0,000746154	0,001195609	0	0	0	0	0	0
-0,02706359	0,06288988	-0,08302131	2,299734	0,09572434	-0,1175918	0,3743641	3,003567	-1,765937	0	0	0,006902667	0,001018955	0	0	0	0	0
-0,02709328	0,06277464	-0,08308309	2,295147	0,04372712	-0,08574185	-0,2752442	-3,119828	1,910995	0	0,001628979	0	0	0,003736134	0	0	0	0
-0,02708377	0,06278156	-0,08311072	2,293834	0,04587366	-0,08282737	-0,07877811	0,1287923	0,1748685	0	6,59E-05	0,001240934	0	0	0	0	0	0
-0,02708842	0,06278909	-0,08312237	2,288092	0,05517154	-0,08809449	-0,3444951	0,5578718	-0,3160266	0	8,74E-05	0,002306559	0	0	0	0	0	0
-0,02708445	0,06279569	-0,08311943	2,288972	0,05659798	-0,08857365	0,05278577	0,085586	-0,02874965	0	0,00026292	0,001566052	0	0	0	0	0	0
-0,02709218	0,06278303	-0,08312117	2,291166	0,05016597	-0,08565868	0,1316211	-0,3859195	0,174898	0	0,000565949	0,000797429	0	0	0	0	0	0
-0,02707734	0,06281248	-0,08314556	2,286685	0,05652571	-0,09053104	-0,2688784	0,3815837	-0,292341	0	0,000250811	0,002144492	0	0	0	0	0	0
-0,02708367	0,06279948	-0,0831409	2,288285	0,05670593	-0,08906664	0,09601574	0,01081286	0,08786363	0	0,000224931	0,001380675	0	0	0	0	0	0
-0,02708305	0,06279951	-0,08313438	2,287986	0,05748608	-0,08846492	-0,01790997	0,0468087	0,03610336	0	0,000226876	0,001470215	0	0	0	0	0	0
-0,02708006	0,06279939	-0,08312371	2,289744	0,05337565	-0,08772479	0,1054428	-0,2466253	0,04440746	0	0,000545709	0,001119972	0	0	0	0	0	0
-0,0270882	0,06278963	-0,08311821	2,292049	0,05158695	-0,08613314	0,1383445	-0,1073215	0,09549897	0	0,000357284	0,00117438	0	0	0	0	0	0
-0,02709619	0,06278047	-0,08311585	2,291199	0,05131864	-0,08434347	-0,05104055	-0,01609859	0,1073798	0	0,000238967	0,001233143	0	0	0	0	0	0
-0,02708572	0,06278739	-0,0831072	2,291721	0,05301626	-0,08558834	0,03132814	0,1018571	-0,07469177	0	0,000298555	0,001562595	0	0	0	0	0	0
-0,02709025	0,06278302	-0,08310197	2,292863	0,05288525	-0,08618048	0,06854998	-0,007860646	-0,03552847	0	0,000376341	0,001418325	0	0	0	0	0	0
-0,02709703	0,06278221	-0,08310752	2,294055	0,05036531	-0,08439846	0,07148252	-0,1511963	0,1069207	0	0,000384607	0,001089521	0	0	0	0	0	0
-0,02709522	0,06277397	-0,08308024	2,289727	0,04569839	-0,08548525	-0,2596516	-0,2800149	-0,06520706	0	0,000743091	0,001097028	0	0	0	0	0	0
-0,0271053	0,06277198	-0,08310568	2,295203	0,04760256	-0,08313225	0,3285735	0,1142503	0,1411796	0	9,99E-05	0,001280419	0	0	0	0	0	0
-0,02710694	0,06276861	-0,08311476	2,294283	0,04621457	-0,089008	-0,05523194	-0,08327907	-0,352544	0	0,000863757	0,001621491	0	0	0	0	0	0
-0,02710322	0,06276269	-0,08309859	2,295629	0,04555777	-0,09017128	0,08076652	-0,03940783	-0,06979676	0	0,00055534	0,001387679	0	0	0	0	0	0
-0,02709088	0,0627826	-0,08309388	2,290456	0,05382961	-0,08606987	-0,3103632	0,4963094	0,2460842	0	0	0,00164922	0,000419991	0	0	0	0	0
-0,02710495	0,06276468	-0,08308642	2,291644	0,04161126	-0,09132382	0,07128225	-0,7330999	-0,3152367	0	0,001545462	0,000911488	0	0	0	0	0	0
-0,02709797	0,06277323	-0,08309068	2,292674	0,04452725	-0,08603785	0,06176937	0,1749593	0,3171576	0	0	0,001163453	7,70E-05	0	0	0	0	0
-0,0271052	0,06277041	-0,08309452	2,292776	0,04418244	-0,08592597	0,006108272	-0,02068873	0,006713109	0	0,000431411	0,001273682	0	0	0	0	0	0
-0,02709395	0,06277492	-0,08308959	2,294533	0,04373987	-0,08618639	0,1054571	-0,02655404	-0,01562563	0	0,000466645	0,001288334	0	0	0	0	0	0
-0,02709006	0,06277953	-0,08309354	2,289056	0,04638165	-0,08520243	-0,3286164	0,1585064	0,05903754	0	0,000170664	0,00141531	0	0	0	0	0	0
-0,02709711	0,06276318	-0,08309285	2,29272	0,03757422	-0,08799865	0,219812	-0,5284449	-0,1677727	0	0,001200462	0,000895057	0	0	0	0	0	0
-0,0270837	0,06278088	-0,08309215	2,289293	0,05005754	-0,08159261	-0,205607	0,7489978	0,3843616	0	0	0,001681138	0,000818009	0	0	0	0	0
-0,02710243	0,06276791	-0,08308228	2,288397	0,04186524	-0,08209184	-0,05378713	-0,4915366	-0,02995351	0	0,000923756	0,000777988	0	0	0	0	0	0
-0,02709019	0,06277539	-0,08307833	2,288412	0,04653789	-0,08468001	0,000944136	0,2803585	-0,1552902	0	0,000256353	0,001747828	0	0	0	0	0	0
-0,02706898	0,06286944	-0,08301337	2,300208	0,08545789	-0,1116886	0,7077585	2,335195	-1,62051	0	0	0,00592717	0,000452378	0	0	0	0	0
-0,02709437	0,06276845	-0,08307631	2,290403	0,04223812	-0,08272626	-0,5883396	-2,593181	1,737735	0	0,001260328	0	0	0,003081273	0	0	0	0
-0,02709431	0,0627687	-0,08307644	2,290684	0,04178927	-0,08214466	0,01690861	-0,02693089	0,03489592	0	0,000395589	0,001177512	0	0	0	0	0	0
-0,0270902	0,06276249	-0,08307607	2,290915	0,04685431	-0,07807008	0,01386163	0,3039017	0,2444744	0	0	0,001308671	0,000236218	0	0	0	0	0
-0,02708497	0,06275942	-0,08307959	2,291737	0,04398609	-0,08262981	0,04929533	-0,1720926	-0,273583	0	0,000832113	0,001367649	0	0	0	0	0	0
-0,02709235	0,06275695	-0,08308101	2,29205	0,03714775	-0,08796477	0,01876827	-0,4102998	-0,3200973	0	0,001238568	0,001160923	0	0	0	0	0	0
-0,02707937	0,06275451	-0,08307628	2,294996	0,04000874	-0,08734983	0,1767537	0,1716593	0,0368964	0	0,000264855	0,001408349	0	0	0	0	0	0
-0,0270762	0,06275383	-0,08307564	2,292794	0,04952066	-0,07778154	-0,1320932	0,5707144	0,5740967	0	0	0,00126964	0,000862202	0	0	0	0	0
-0,02707793	0,06274843	-0,08308636	2,297593	0,04366297	-0,08251117	0,2879328	-0,351461	-0,2837776	0	0,001023721	0,001194058	0	0	0	0	0	0
-0,02707233	0,06274768	-0,08308175	2,293873	0,05090441	-0,07976	-0,2232166	0,4344857	0,16507	0	0	0,00157606	0,000311	0	0	0	0	0
-0,02707522	0,06274926	-0,08307869	2,293211	0,04635187	-0,075675	-0,03968231	-0,2731518	0,2450993	0	0,000321284	0,000702018	0	0	0	0	0	0
-0,02708481	0,06275928	-0,08307873	2,292072	0,04554232	-0,07854299	-0,0683497	-0,04857315	-0,1720786	0	0,000550658	0,001364358	0	0	0	0	0	0
-0,02707107	0,06273348	-0,0830852	2,297034	0,0393089	-0,08808734	0,2976746	-0,3740043	-0,5726599	0	0,001434449	0,001472618	0	0	0	0	0	0
-0,02706704	0,06274888	-0,08306883	2,296806	0,05429013	-0,08954358	-0,01367566	0,898872	-0,08737458	0	0	0,002424584	0,000458963	0	0	0	0	0
-0,02707116	0,06276991	-0,08307155	2,290292	0,04196321	-0,08387294	-0,3908007	-0,7396139	0,340238	0	0,000818473	0,00017851	0	0	0	0	0	0
-0,02705736	0,06276003	-0,08305863	2,291115	0,04396451	-0,07572335	0,04933824	0,120078	0,4889742	0	0	0,000827982	0,000291464	0	0	0	0	0
-0,02707493	0,06281453	-0,08305805	2,286442	0,04398265	-0,07086779	-0,2803654	0,001088528	0,2913329	0	0	0,00085826	2,36E-05	0	0	0	0	0
-0,02706726	0,06283095	-0,08304558	2,285695	0,04632811	-0,07563055	-0,04480353	0,1407267	-0,2857647	0	0,000438062	0,001646078	0	0	0	0	0	0
-0,02705778	0,06284791	-0,08301855	2,287659	0,05082782	-0,05562597	0,117831	0,2699821	1,200272	0	0	0,000134248	0,001422273	0	0	0	0	0
-0,02701016	0,06287422	-0,0830007	2,285677	0,04776982	-0,03899303	-0,1189325	-0,1834793	0,997974	0	0	0	0,000902263	0,000313825	0	0	0	0
-0,02701436	0,06288809	-0,08296467	2,285855	0,0446433	-0,04394407	0,01071451	-0,1875911	-0,2970614	0	0,00047766	0,000995344	0	0	0	0	0	0
-0,02699682	0,06290583	-0,08295696	2,290819	0,050588	-0,04120909	0,2978033	0,3566815	0,1640984	0	0	0,001110554	0,000614569	0	0	0	0	0
-0,02698136	0,06292602	-0,08295123	2,292796	0,04853863	-0,03567315	0,1186178	-0,1229621	0,3321561	0	0	0,000387	0,000337849	0	0	0	0	0
-0,02698978	0,06292371	-0,08294073	2,288141	0,05175208	-0,03433328	-0,2792496	0,1928066	0,08039168	0	0	0,000973269	0,000447386	0	0	0	0	0
-0,02696773	0,06294248	-0,08293364	2,290176	0,03889517	-0,03203503	0,122051	-0,7714127	0,137895	0	0,000564916	0	0	0,000200006	0	0	0	0
-0,02698568	0,0629124	-0,08294986	2,286871	0,04832828	-0,03257458	-0,1982685	0,5659854	-0,03237308	0	0	0,001407387	0,000691149	0	0	0	0	0
-0,02698133	0,06294031	-0,08294572	2,292684	0,04516313	-0,02787686	0,3487723	-0,1899087	0,2818626	0	0	0,000258629	0,000264817	0	0	0	0	0
-0,02698581	0,06293663	-0,08294647	2,293906	0,04127527	-0,03639356	0,07329927	-0,2332715	-0,5110008	0	0,000695455	0,001054418	0	0	0	0	0	0
-0,0269841	0,06292626	-0,08291777	2,294035	0,04741118	-0,02472537	0,007767662	0,3681539	0,7000898	0	0	0,00038943	0,001295102	0	0	0	0	0
-0,02698754	0,0629268	-0,08291716	2,291793	0,03417223	-0,01800934	-0,1345107	-0,7943351	0,4029609	0	0,000229745	0	0	0,00067548	0	0	0	0
-0,02698272	0,06293929	-0,08291714	2,294513	0,04563739	-0,02952157	0,1632067	0,6879082	-0,6907323	0	0	0,00213023	0,000158334	0	0	0	0	0
-0,02698662	0,06293701	-0,08291443	2,293736	0,03686289	-0,0257779	-0,04666319	-0,5264692	0,2246198	0	0,000191	0	0	0,000124681	0	0	0	0
-0,02698046	0,06294274	-0,08291085	2,292694	0,04463643	-0,01835347	-0,06251323	0,4664118	0,4454649	0	0	0,000650846	0,001174706	0	0	0	0	0
-0,02697337	0,06296121	-0,08290366	2,292661	0,04391719	-0,02288724	-0,001959797	-0,0431542	-0,2720259	0	0,000104881	0,000896916	0	0	0	0	0	0
-0,02698247	0,06296847	-0,08290632	2,290848	0,0480942	-0,01886277	-0,1088188	0,25062	0,2414677	0	0	0,000678722	0,000784402	0	0	0	0	0
-0,02698211	0,06295243	-0,08290944	2,291307	0,04706302	-0,02012048	0,0275659	-0,06187107	-0,07546246	0	0	0,000685426	0,000132092	0	0	0	0	0
-0,0269732	0,0629511	-0,08291421	2,291255	0,04303716	-0,0232633	-0,003118509	-0,241551	-0,1885689	0	0,000232381	0,000610023	0	0	0	0	0	0
-0,02697835	0,06296198	-0,08290904	2,293204	0,04977562	-0,02263039	0,1169584	0,4043069	0,03797453	0	0	0,001090392	0,000713734	0	0	0	0	0
-0,0269784	0,06297059	-0,08290183	2,292902	0,0469147	-0,02385522	-0,01815316	-0,171655	-0,07348926	0	1,45E-05	0,000609533	0	0	0	0	0	0
-0,02697972	0,0629501	-0,08289962	2,293233	0,05451461	-0,01871406	0,01988407	0,4559941	0,3084685	0	0	0,000879812	0,001122468	0	0	0	0	0
-0,02697679	0,06297132	-0,08290724	2,291302	0,04475829	-0,02273909	-0,1158426	-0,5853785	-0,2415012	0	0,000606688	0,000331096	0	0	0	0	0	0
-0,02697737	0,06296655	-0,08290912	2,291751	0,04177582	-0,021045	0,02690787	-0,1789477	0,1016452	0	0	0,000347615	0,000130006	0	0	0	0	0
-0,02698056	0,06295625	-0,08290026	2,294458	0,0460799	-0,02642029	0,1624486	0,2582444	-0,3225169	0	0	0,001305763	0,000132324	0	0	0	0	0
-0,0269842	0,06294142	-0,0829053	2,294374	0,03996335	-0,02219204	-0,005092611	-0,3669925	0,2536947	0	0	8,67E-07	6,44E-05	0	0	0	0	0
-0,02697002	0,06296249	-0,08290881	2,29052	0,04353692	-0,02260317	-0,2312274	0,2144143	-0,02466789	0	0	0,000900483	0,000399084	0	0	0	0	0
-0,02697486	0,06295817	-0,08290151	2,293152	0,04754874	-0,01912654	0,1579282	0,2407086	0,2085976	0	0	0,000698864	0,000733528	0	0	0	0	0
-0,02697027	0,06297272	-0,0828987	2,290582	0,04225026	-0,01848897	-0,1541945	-0,3179082	0,03825393	0	4,20E-05	0,00025123	0	0	0	0	0	0
-0,02697766	0,06298067	-0,08289879	2,293411	0,04751078	-0,0237209	0,1697728	0,3156303	-0,3139152	0	0	0,001341862	0,000239614	0	0	0	0	0
-0,02698215	0,06296653	-0,08289764	2,29347	0,05253474	-0,02282414	0,003519051	0,3014372	0,05380546	0	0	0,001001221	0,000652349	0	0	0	0	0
-0,02698331	0,06295756	-0,08290241	2,291932	0,04703848	-0,02562884	-0,09231073	-0,3297749	-0,1682816	0	0,00028396	0,00056518	0	0	0	0	0	0
-0,02698125	0,06297336	-0,08289485	2,292235	0,0499648	-0,02641757	0,01822468	0,1755786	-0,04732357	0	0	0,000986726	0,000363727	0	0	0	0	0
-0,02697912	0,0629576	-0,08290159	2,294357	0,04158307	-0,02907447	0,1272724	-0,5029027	-0,1594137	0	0,00053723	0,000363086	0	0	0	0	0	0
-0,02696546	0,062965	-0,08289324	2,294049	0,04801	-0,02593153	-0,01846787	0,3856151	0,188576	0	0	0,000936454	0,000794976	0	0	0	0	0
-0,0269752	0,06296432	-0,0828957	2,289901	0,04575722	-0,01504936	-0,2488513	-0,1351667	0,6529287	0	0	0	0,000824841	0,00018003	0	0	0	0
-0,02696653	0,06297733	-0,08289976	2,292346	0,04422	-0,02038647	0,1466558	-0,0922325	-0,3202256	0	0,000174123	0,000874058	0	0	0	0	0	0
-0,02696672	0,06297165	-0,08290377	2,294243	0,04110561	-0,02430128	0,1138542	-0,1868633	-0,2348885	0	0,000253709	0,000702094	0	0	0	0	0	0
-0,02696072	0,06297883	-0,08290203	2,297618	0,04451839	-0,02265774	0,2025028	0,2047666	0,09861267	0	0	0,000777915	0,000521986	0	0	0	0	0
-0,02698228	0,06297746	-0,08288543	2,290827	0,05046251	-0,02337589	-0,4074947	0,3566462	-0,04308927	0	0	0,001138119	0,000584423	0	0	0	0	0
-0,02698991	0,06297814	-0,08287683	2,29207	0,05885868	-0,01618939	0,07461533	0,5037693	0,4311892	0	0	0,000823061	0,001361651	0	0	0	0	0
-0,026975	0,06299273	-0,08287676	2,294784	0,05327977	-0,0227182	0,1628348	-0,3347339	-0,3917278	0	0,000420846	0,000816974	0	0	0	0	0	0
-0,02697855	0,06297448	-0,08287543	2,297504	0,04657873	-0,02315965	0,1632067	-0,4020617	-0,02648687	0	0,000194358	0,000321809	0	0	0	0	0	0
-0,02697754	0,0629735	-0,08287005	2,29687	0,04255861	-0,02589297	-0,03806584	-0,2412068	-0,1639991	0	0,00023855	0,000607308	0	0	0	0	0	0
-0,02697673	0,06298218	-0,08287567	2,299467	0,04412606	-0,0195845	0,155811	0,09404678	0,3785076	0	0	0,000352645	0,00071797	0	0	0	0	0
-0,02698233	0,06295755	-0,08286409	2,298494	0,04731129	-0,02266823	-0,05835045	0,1911137	-0,1850234	0	0	0,001075932	0,000252521	0	0	0	0	0
-0,02699081	0,06298807	-0,08286977	2,294986	0,05952433	-0,01655273	-0,210485	0,7327808	0,3669295	0	0	0,001126622	0,001529426	0	0	0	0	0
-0,02699315	0,06294496	-0,08284068	2,296535	0,0498423	-0,01303354	0,09295446	-0,5809204	0,211151	0	1,68E-06	0	0	0,000163313	0	0	0	0
-0,02703945	0,06298612	-0,08282845	2,303422	0,03738508	-0,02133587	0,4132167	-0,7474321	-0,4981388	0	0,001085079	0,000337916	0	0	0	0	0	0
-0,02701573	0,06301177	-0,08279808	2,296318	0,05308692	-0,005519721	-0,426263	0,9421086	0,948967	0	0	0,000579208	0,002366748	0	0	0	0	0
-0,02704101	0,06294209	-0,08279297	2,307244	0,04383428	-0,01416906	0,6555592	-0,5551574	-0,518959	0	0,000777464	0,000543835	0	0	0	0	0	0
-0,02702986	0,06285094	-0,08278568	2,306304	0,04400473	-0,0196508	-0,05641926	0,01022747	-0,3289039	0	7,51E-05	0,000975687	0	0	0	0	0	0
-0,02709198	0,06298537	-0,082737	2,307251	0,04550304	0,000190512	0,05686272	0,0898983	1,190476	0	0	0	0,00173731	0,000647453	0	0	0	0
-0,0270442	0,06288259	-0,08272651	2,316343	0,05601864	-0,007776987	0,5455245	0,6309344	-0,478049	0	0	0,00174694	0,000635302	0	0	0	0	0
-0,02704767	0,06285308	-0,08271504	2,319186	0,03948687	0,006901092	0,1705739	-0,991904	0,880683	0	0	0	0,000352659	0,001546729	0	0	0	0
-0,02708106	0,06285805	-0,08273761	2,322634	0,03346842	-0,00264413	0,2068945	-0,3611064	-0,5727122	0	0,000625576	0,000572731	0	0	0	0	0	0
-0,02705885	0,06286467	-0,0827518	2,322422	0,04567074	0,01184684	-0,01274583	0,7321379	0,8694565	0	0	0,000200921	0,00217677	0	0	0	0	0
-0,02705302	0,06292844	-0,08272746	2,316822	0,04390804	0,003342852	-0,3359979	-0,105762	-0,5102382	0	0,000143491	0,000810128	0	0	0	0	0	0
-0,02703735	0,06288012	-0,08277457	2,317915	0,03686883	-0,00805449	0,06560313	-0,4223514	-0,6838392	0	0,000818047	0,000710721	0	0	0	0	0	0
-0,0271014	0,06290518	-0,08273756	2,318329	0,03964682	0,002913094	0,02479072	0,1666791	0,6580538	0	0	0	0,001250332	0,000124037	0	0	0	0
-0,02707249	0,0629255	-0,08272415	2,314075	0,04598484	0,006392347	-0,2552027	0,3802804	0,2087547	0	0	0,000567451	0,001112807	0	0	0	0	0
-0,02707251	0,06290849	-0,08272191	2,323483	0,05163754	0,003269843	0,5644931	0,3391613	-0,1873499	0	0	0,001010188	0,000700885	0	0	0	0	0
-0,02708806	0,06287967	-0,08270591	2,319555	0,04002192	-0,001693402	-0,2356906	-0,696936	-0,2977941	0	0,000611445	1,80E-05	0	0	0	0	0	0
-0,02706788	0,0628953	-0,08269519	2,313898	0,03866441	-0,003439105	-0,3394597	-0,08145048	-0,104742	0	0	0,000444327	0,000166061	0	0	0	0	0
-0,02708594	0,06289237	-0,08269555	2,322931	0,03357691	-0,000944765	0,5420197	-0,3052493	0,1496601	0	0	0	0,000170732	0,000109693	0	0	0	0
-0,02706859	0,06289148	-0,08272427	2,321487	0,04570806	-0,005504333	-0,08664591	0,7278676	-0,2735735	0	0	0,001513565	0,000856331	0	0	0	0	0
-0,02704681	0,06289433	-0,08271963	2,323901	0,04397097	0,001584785	0,1448533	-0,1042251	0,4253462	0	0	0	0,000776679	0,00010571	0	0	0	0
-0,0270748	0,06288782	-0,08271697	2,32069	0,03537686	-0,006851641	-0,1926609	-0,5156456	-0,5061845	0	0,000736578	0,000412824	0	0	0	0	0	0
-0,02707971	0,06287774	-0,08272639	2,320905	0,02908951	-0,01018578	0,01288888	-0,3772403	-0,200048	0	0,000388251	0,000215561	0	0	0	0	0	0
-0,02707073	0,06291505	-0,08271227	2,31742	0,04607906	-0,001544785	-0,2091261	1,019371	0,5184587	0	0	0,000977151	0,001983173	0	0	0	0	0
-0,02707068	0,06291043	-0,08271399	2,313068	0,0382965	-0,000995364	-0,2611251	-0,4669527	0,03296517	0	6,10E-05	0	0	0,000106999	0	0	0	0
-0,0270883	0,06286673	-0,08271705	2,319912	0,04208879	-0,008454248	0,4106561	0,2275367	-0,4475322	0	0	0,001180499	0,00011635	0	0	0	0	0
-0,0270787	0,06289586	-0,08271156	2,317801	0,04202672	-0,002556519	-0,1266715	-0,003723793	0,3538631	0	0	8,82E-05	0,000744841	0	0	0	0	0
-0,02708297	0,06291422	-0,08269583	2,319031	0,03783797	-0,000159142	0,07381425	-0,251325	0,1438424	0	0	0	0,000269306	1,52E-05	0	0	0	0
-0,02707771	0,06290762	-0,08271331	2,316462	0,04183196	-0,006401947	-0,1541373	0,2396388	-0,3745676	0	0	0,001096545	0,000219371	0	0	0	0	0
-0,02706581	0,06286139	-0,08271687	2,31903	0,03436768	-0,003823559	0,1540801	-0,4478558	0,154703	0	0	0	1,23E-05	0,000220647	0	0	0	0
-0,02706254	0,06286581	-0,08269432	2,32712	0,0376002	0,004014927	0,4853716	0,1939513	0,4703082	0	0	5,95E-05	0,001080411	0	0	0	0	0
-0,02705644	0,06288289	-0,08268769	2,32463	0,03445186	0,005200711	-0,1493737	-0,1889002	0,07114685	0	0	3,25E-05	0,000278772	0	0	0	0	0
-0,02708582	0,06286817	-0,08268998	2,321654	0,0298964	-0,000695836	-0,1785847	-0,2733271	-0,3537921	0	0,000335114	0,000386387	0	0	0	0	0	0
-0,02708878	0,06288683	-0,08268501	2,322178	0,0286845	-0,003091317	0,0314855	-0,07271365	-0,1437286	0	0	0,000388773	3,95E-05	0	0	0	0	0
-0,02709026	0,06289805	-0,08267847	2,321821	0,03732286	0,00844415	-0,02145763	0,5183001	0,6921266	0	0	0,000114961	0,001668097	0	0	0	0	0
-0,02708645	0,06290909	-0,08267584	2,321907	0,04222133	0,002849177	0,005178441	0,2939081	-0,3356977	0	0	0,001023327	0,000408916	0	0	0	0	0
-0,02708506	0,06287527	-0,0826776	2,315827	0,03182103	-0,000942701	-0,3648083	-0,6240167	-0,2275122	0	0,000542746	0	0	6,89E-05	0	0	0	0
-0,02708483	0,06289184	-0,082683	2,322245	0,04964309	0,003187977	0,3850786	1,069321	0,2478402	0	0	0,001286032	0,001845472	0	0	0	0	0
-0,02708654	0,06288204	-0,08269365	2,318618	0,04053489	-0,000630911	-0,217609	-0,546491	-0,2291328	0	0,000376584	9,43E-05	0	0	0	0	0	0
-0,02710097	0,06286351	-0,08268988	2,326533	0,04304307	0,01479181	0,4749003	0,1504909	0,9253618	0,01333333	0,01167913	0,01284098	0,01498753	0,01382569	0	0	0	0
-0,02711977	0,06283216	-0,08266909	2,328666	0,04026908	0,002435469	0,1279733	-0,1664392	-0,7413793	0,02222222	0,022703	0,0231755	0,02174145	0,02126895	51	51	51	51
-0,02715939	0,06280699	-0,08267482	2,331688	0,03312475	0,01190716	0,181317	-0,4286591	0,5683001	0,02666667	0,02607671	0,02588188	0,02725663	0,02745145	52	52	52	52
-0,02713599	0,06273461	-0,08264982	2,334494	0,03311667	0,008757194	0,1683709	-0,000484808	-0,1889974	0,03111111	0,03088186	0,03154322	0,03134037	0,030679	52	52	52	52
-0,02712876	0,06280375	-0,08265112	2,329406	0,03519245	0,006812713	-0,3052562	0,1245466	-0,1166686	0,03555556	0,03512763	0,03608057	0,03598348	0,03503054	52	52	52	52
-0,02711331	0,06278608	-0,08264206	2,334046	0,02699033	0,01245805	0,2783484	-0,492126	0,3387197	0,03555556	0,03531448	0,03487003	0,03579663	0,03624108	52	52	52	52
-0,02714693	0,06273062	-0,08267437	2,335086	0,02347143	0,004268017	0,06239879	-0,2111337	-0,4914011	0,04	0,04042514	0,0404723	0,03957486	0,0395277	53	53	53	53
-0,02715331	0,06275643	-0,08265807	2,336088	0,02742313	0,006470059	0,06013858	0,2371015	0,1321223	0,03555556	0,0348474	0,03587007	0,03626371	0,03524105	52	52	52	52
-0,0271735	0,06280976	-0,08266319	2,332964	0,02549429	0,00620123	-0,1874252	-0,1157299	-0,01612974	0,07111111	0,07092602	0,07120445	0,07129621	0,07101778	55	55	55	55
-0,02715621	0,06272195	-0,08263892	2,337976	0,02786463	0,01466704	0,3006786	0,1422202	0,5079476	0,09333333	0,09225785	0,09309958	0,09440882	0,09356709	57	57	57	57
-0,02719251	0,06269509	-0,08263455	2,339338	0,02562844	0,003824447	0,08172496	-0,1341713	-0,6505542	0,1244444	0,1249346	0,1251789	0,1239543	0,12371	59	60	59	59
-0,02718102	0,06273666	-0,08261538	2,344194	0,02504296	0,001329232	0,2914089	-0,0351286	-0,1497126	0,1377778	0,1376989	0,1381295	0,1378567	0,137426	61	61	61	60
-0,02717138	0,06269086	-0,08266919	2,342198	0,005295635	0,03189491	-0,1197765	-1,184837	1,833937	0,1377778	0,1367568	0,134493	0,1387988	0,1410625	60	60	61	61
-0,02738461	0,06257562	-0,08286688	2,241102	0,01682081	0,06081561	-6,065743	0,6915089	1,735239	0,1422222	0,1390191	0,1407385	0,1454253	0,1437059	61	61	61	61
-0,02721954	0,06275976	-0,08273219	2,323899	-0,04730215	-0,001753249	4,967799	-3,84737	-3,754124	0,1422222	0,1503143	0,1416735	0,1341302	0,142771	62	61	60	61
-0,02717374	0,06269264	-0,08266892	2,355121	-0,06334554	-0,07837627	1,873294	-0,9626014	-4,597373	0,1422222	0,1491994	0,1460073	0,135245	0,1384372	61	61	60	61
-0,02731278	0,06255861	-0,08224236	2,14138	0,07772885	0,02160977	-12,8244	8,464446	5,999151	0,1422222	0,1267652	0,1452487	0,1576792	0,1391957	60	61	62	61
-0,02677964	0,06278886	-0,08238374	2,416452	0,1490447	0,2454053	16,50428	4,278942	13,42771	0,1422222	0,1205711	0,1321099	0,1638734	0,1523346	59	60	63	62
-0,0272016	0,06270049	-0,08250682	2,304438	-0,03934402	0,04900689	-6,720844	-11,3033	-11,78389	0,1422222	0,1652128	0,1418193	0,1192317	0,1426252	63	61	59	61
-0,02724544	0,06262948	-0,08222234	2,260728	-0,02101856	-0,2112125	-2,622566	1,099525	-15,61313	0,1422222	0,1590581	0,1608368	0,1253863	0,1236076	62	62	60	59
-0,02726504	0,06304893	-0,08241725	2,379894	-0,1360166	-0,249024	7,14994	-6,899869	-2,268688	0,1422222	0,1552412	0,1387211	0,1292033	0,1457233	62	61	60	61
-0,02714902	0,06316728	-0,0824675	2,183141	0,1278255	-0,107556	-11,8052	15,83049	8,488067	0,1422222	0,117701	0,1519185	0,1667435	0,132526	59	62	63	60
-0,02731274	0,0631071	-0,08240546	2,289133	0,2316964	-0,1317457	6,359512	6,232241	-1,451379	0,1422222	0,1364419	0,1535403	0,1480026	0,1309042	60	62	61	60
-0,02720522	0,06314263	-0,08236827	2,317961	-0,154962	-0,2197422	1,729685	-23,19946	-5,279782	0,1422222	0,1744485	0,1249504	0,1099959	0,1594941	63	59	58	62
-0,02692349	0,06317642	-0,08234084	2,309032	-0,05566354	0,158945	-0,5356969	5,957895	22,72119	0,1422222	0,1125103	0,1233128	0,1719341	0,1611316	59	59	63	62
-0,02668206	0,06276117	-0,08330397	2,593023	-0,01064842	0,006546521	17,03938	2,700902	-9,143889	0,1422222	0,1487062	0,1538951	0,1357382	0,1305494	61	62	60	60
-0,02683534	0,06304318	-0,08244938	2,313555	-0,04608175	0,09311055	-16,76804	-2,125996	5,193831	0,1422222	0,1386841	0,1335105	0,1457603	0,150934	61	60	61	62
-0,02698528	0,06344526	-0,08288547	2,381684	0,23277	-0,08490388	4,087721	16,73107	-10,68085	0,1422222	0,1346933	0,1728109	0,1497511	0,1116336	60	63	61	58
-0,02686133	0,06316104	-0,08242641	2,266138	0,1180281	-0,04302181	-6,932717	-6,884501	2,512919	0,1422222	0,1458437	0,1344353	0,1386007	0,1500091	61	60	61	62
-0,02715707	0,06286771	-0,08255523	2,229618	0,04552587	0,05183339	-2,19121	-4,350123	5,691301	0,1422222	0,1399074	0,1321177	0,144537	0,1523267	61	60	61	62
-0,02743787	0,0625424	-0,08268342	2,235567	0,1103944	0,0372846	0,3569548	3,892103	-0,8729257	0,1422222	0,1377263	0,1477184	0,1467182	0,1367261	61	61	61	60
-0,02705151	0,06346742	-0,08230815	2,343157	0,137619	-0,2354875	6,455385	1,633471	-16,36629	0,1422222	0,1579337	0,1639531	0,1265107	0,1204914	62	63	60	59
-0,02646779	0,06305814	-0,08299338	2,537676	0,01449414	0,04511227	11,67111	-7,387475	16,83595	0,1422222	0,1321777	0,1176926	0,1522668	0,1667518	60	59	62	63
-0,02735014	0,06248694	-0,08264986	2,285722	-0,1392928	0,08922092	-15,11723	-9,227196	2,646514	0,1422222	0,1493036	0,1280634	0,1351408	0,1563811	61	60	60	62
-0,02743557	0,06285162	-0,08253627	2,228455	0,1706264	-0,1724058	-3,435996	18,59512	-15,69757	0,1422222	0,1393425	0,1799452	0,145102	0,1044992	61	64	61	58
-0,02733913	0,06285713	-0,08250439	2,288478	0,1488286	-0,1555863	3,601363	-1,30787	1,009165	0,1422222	0,1425885	0,1429493	0,1418559	0,1414951	61	61	61	61
-0,02711079	0,06353279	-0,08221297	2,309927	0,09264421	-0,1616956	1,286986	-3,371054	-0,366558	0,1422222	0,1466504	0,1417611	0,1377941	0,1426833	61	61	61	61
-0,02763224	0,0633812	-0,08202775	2,101923	0,04306629	-0,09967703	-12,48022	-2,974669	3,721109	0,1422222	0,1420419	0,1369539	0,1424026	0,1474906	61	60	61	61
-0,02751959	0,06320372	-0,08190867	2,033521	-0,07719719	-0,1813029	-4,104129	-7,215795	-4,897541	0,1422222	0,1569206	0,140945	0,1275239	0,1434994	62	61	60	61
-0,02716768	0,06292985	-0,08274905	2,270721	0,0703892	0,156537	14,23197	8,855166	20,27035	0,1422222	0,1108274	0,1299456	0,173617	0,1544989	58	60	63	62
-0,02731178	0,06268184	-0,08256626	2,279464	0,1065261	-0,07578326	0,5245532	2,168211	-13,93919	0,1422222	0,1536858	0,1601527	0,1307587	0,1242917	62	62	60	59
-0,02731837	0,06272144	-0,08262096	2,267597	0,02247223	-0,008696021	-0,7119928	-5,043224	4,025227	0,1422222	0,1431025	0,1334655	0,141342	0,150979	61	60	61	62
-0,02731708	0,06286779	-0,08256007	2,276416	-0,0206972	-0,01796818	0,5291023	-2,590161	-0,5563282	0,1422222	0,1457554	0,1401611	0,1386891	0,1442834	61	61	61	61
-0,02725234	0,0628989	-0,08267433	2,278817	-0,01446163	0,08697402	0,1440951	0,3741333	6,296519	0,1511111	0,1437153	0,1441744	0,1585069	0,1580479	61	61	62	62
-0,02711617	0,06282931	-0,08210023	2,375772	0,06090739	0,01015973	5,817292	4,522133	-4,608848	0,1555556	0,1549316	0,165194	0,1561795	0,1459171	62	63	62	61
-0,0268973	0,06262876	-0,08200591	2,338736	0,1183664	0,000953747	-2,222181	3,447534	-0,5523582	0,16	0,1559116	0,165174	0,1640884	0,154826	62	63	63	62
-0,02692022	0,06370284	-0,08228562	2,404841	-0,1362723	-0,2697313	3,966329	-15,27829	-16,24107	0,16	0,1955794	0,1622974	0,1244206	0,1577026	65	62	59	62
-0,02715251	0,06315924	-0,08247302	2,274324	0,2846419	-0,03924796	-7,831048	25,2548	13,82898	0,1688889	0,1273512	0,1835536	0,2104266	0,1542242	60	64	66	62
-0,02726597	0,06302428	-0,0825854	2,229597	0,1364602	-0,03620283	-2,683591	-8,890881	0,1827075	0,1866667	0,1943723	0,1793197	0,1789611	0,1940136	65	64	64	65
-0,02715799	0,06286658	-0,08286214	2,167084	-0,000591284	0,21307	-3,750779	-8,223075	14,95634	0,2044444	0,1955864	0,1791284	0,2133025	0,2297605	65	64	67	68
-0,02702951	0,06282467	-0,08207604	2,409043	0,06634413	0,03207983	14,51749	4,016117	-10,85939	0,2044444	0,2103035	0,2196626	0,1985854	0,1892263	66	67	65	65
-0,02673076	0,06287245	-0,08285291	2,324218	0,01229628	-0,01040207	-5,089464	-3,242865	-2,548909	0,2044444	0,2102173	0,2039775	0,1986716	0,2049114	66	66	65	66
-0,02731265	0,06293923	-0,08264781	2,233374	0,1176303	-0,1085661	-5,450624	6,320029	-5,889828	0,2044444	0,2039236	0,2189163	0,2049653	0,1899726	66	67	66	65
-0,02706158	0,0625703	-0,08235579	2,346402	-0,05245961	0,1105026	6,78167	-10,20537	13,1441	0,2044444	0,2009253	0,1794653	0,2079636	0,2294235	66	64	66	68
-0,02689388	0,0628121	-0,08264571	2,376619	0,08459236	0,05941314	1,812984	8,223103	-3,065362	0,2044444	0,1978466	0,2159847	0,2110422	0,1929042	65	67	66	65
-0,02712983	0,06284992	-0,0824878	2,255881	0,09149657	-0,04772118	-7,244253	0,4142516	-6,428047	0,2044444	0,2100205	0,2126789	0,1988684	0,19621	66	67	65	65
-0,02717614	0,06345472	-0,08271119	2,38354	0,3368272	-0,00636882	7,659559	14,71981	2,481137	0,2044444	0,1839389	0,2201151	0,22495	0,1887738	64	67	67	65
-0,02767397	0,06218828	-0,0826945	2,188877	-0,02694849	0,1256535	-11,67977	-21,8265	7,921326	0,2044444	0,2173626	0,1731706	0,1915263	0,2357183	67	63	65	68
-0,02739612	0,06291898	-0,08248408	2,190668	-0,0584554	-0,005017756	0,1074312	-1,890411	-7,840262	0,2044444	0,2148098	0,2098599	0,194079	0,199029	67	66	65	65
-0,02727473	0,06282701	-0,08288673	2,281917	0,1666384	0,1045774	5,474972	13,5056	6,575699	0,2044444	0,181651	0,2119949	0,2272379	0,1968939	64	66	68	65
-0,02733578	0,06297342	-0,08252104	2,100499	-0,1137698	0,03443056	-10,88506	-16,82446	-4,208805	0,2044444	0,2262711	0,1903468	0,1826178	0,2185421	68	65	64	67
-0,02712752	0,06301737	-0,08244669	2,258821	0,01571436	0,04964425	9,499293	7,769034	0,9128197	0,2044444	0,195109	0,2109614	0,2137799	0,1979275	65	66	67	65
-0,02707424	0,06276444	-0,08240931	2,408593	-0,1174341	0,1845428	8,986284	-7,988893	8,093895	0,2044444	0,2036684	0,1853419	0,2052205	0,223547	66	64	66	67
-0,02714495	0,06271079	-0,08236302	2,306892	0,02227864	-0,06074286	-6,102064	8,382749	-14,71711	0,2044444	0,2111634	0,2283745	0,1977254	0,1805144	66	68	65	64
-0,02735038	0,0631454	-0,08258398	2,286878	0,2594592	-0,2609835	-1,20084	14,2308	-12,01442	0,2044444	0,2022433	0,2358941	0,2066456	0,1729948	66	68	66	63
-0,0274999	0,06272132	-0,0823549	2,294355	-0,10466	-0,02635201	0,4486218	-21,84711	14,07786	0,2044444	0,2135238	0,1677364	0,1953651	0,2411525	67	63	65	69
-0,02718055	0,06306975	-0,08251955	2,265869	0,2113915	-0,07547338	-1,709129	18,96305	-2,947277	0,2044444	0,1870695	0,2292234	0,2218194	0,1796655	64	68	67	64
-0,02641604	0,06308441	-0,08299895	2,387007	0,1790264	0,1624962	7,268286	-1,941902	14,27815	0,2044444	0,188693	0,1883897	0,2201959	0,2204992	65	65	67	67
-0,02710878	0,06326301	-0,08240084	2,232265	0,230557	0,04915258	-9,284516	3,091831	-6,800603	0,2044444	0,2053561	0,2161509	0,2035328	0,192738	66	67	66	65
-0,02691617	0,06291863	-0,08259104	2,402318	0,1352596	0,04191041	10,20316	-5,717833	-0,4345289	0,2044444	0,2088251	0,2000946	0,2000638	0,2087943	66	66	66	66
-0,02718514	0,06272797	-0,08239508	2,205671	0,07890994	-0,06127127	-11,79882	-3,380975	-6,190889	0,2044444	0,2138399	0,2086562	0,195049	0,2002327	67	66	65	66
-0,02731644	0,0625549	-0,08243626	2,286291	-0,1205815	0,07888291	4,837208	-11,96947	8,409234	0,2044444	0,2084216	0,1820711	0,2004672	0,2268178	66	64	66	68
-0,02676895	0,06296246	-0,08227061	2,387076	-0,006171848	-0,04172732	6,047103	6,864568	-7,236599	0,2044444	0,2052955	0,2189012	0,2035934	0,1899877	66	67	66	65
-0,02712157	0,06303947	-0,08255323	2,260099	0,1929755	0,009858379	-7,618603	11,94882	3,095136	0,2044444	0,1873721	0,2151293	0,2215167	0,1937596	64	67	67	65
-0,02689653	0,06298741	-0,08290873	2,16449	0,1547356	0,1729417	-5,736583	-2,294391	9,784979	0,2044444	0,1936771	0,192183	0,2152118	0,2167059	65	65	67	67
-0,02689426	0,06340149	-0,08233315	2,32975	0,07158945	-0,1795243	9,9156	-4,988757	-21,14792	0,2044444	0,2316605	0,2231147	0,1772284	0,1857741	68	67	64	64
-0,02726567	0,06286346	-0,0823587	2,22782	0,06845935	0,03908358	-6,115797	-0,1878052	13,11645	0,2044444	0,1904404	0,1914339	0,2184485	0,2174549	65	65	67	67
-0,02707775	0,06301517	-0,08242222	2,205668	-0,2129995	-0,03238815	-1,329071	-16,8875	-4,288296	0,2044444	0,2280741	0,1900391	0,1808148	0,2188497	68	65	64	67
-0,02729988	0,0625769	-0,08261868	2,262761	-0,06713014	0,09256404	3,425568	8,752146	7,497117	0,2044444	0,1879408	0,2041025	0,220948	0,2047863	65	66	67	66
-0,0266473	0,063264	-0,08269942	2,299546	0,2977143	0,1639862	2,207075	21,89063	4,285319	0,2044444	0,1736515	0,223387	0,2352374	0,1855018	63	67	68	64
-0,026893	0,06279786	-0,08293421	2,483509	0,1722373	-0,1437799	11,03776	-7,528608	-18,46593	0,2044444	0,2301544	0,2185419	0,1787345	0,1903469	68	67	64	65
-0,02690869	0,0631898	-0,08255352	2,418377	0,1148081	0,1255523	-3,907935	-3,445742	16,1599	0,2044444	0,1893267	0,1847313	0,2195622	0,2241575	65	64	67	67
-0,02720864	0,06315693	-0,08256356	2,285945	0,160427	-0,1715234	-7,94586	2,737127	-17,82451	0,2044444	0,2196428	0,2283256	0,1892461	0,1805633	67	68	65	64
-0,02680848	0,06299648	-0,08236663	2,306272	-0,05386207	0,1412181	1,219594	-12,85732	18,76445	0,2044444	0,1976637	0,1708719	0,2112251	0,238017	65	63	66	69
-0,02725656	0,06320716	-0,08194619	2,167531	0,2013912	-0,1692747	-8,324416	15,31517	-18,62953	0,2044444	0,2074376	0,2420958	0,2014512	0,1667931	66	69	66	63
-0,02660857	0,06310207	-0,08205386	2,417249	-0,06397758	0,2075974	14,98302	-15,9221	22,61228	0,2044444	0,1963181	0,1631943	0,2125708	0,2456946	65	63	67	69
-0,02681668	0,06328933	-0,0822556	2,245206	0,1096436	-0,1202592	-10,32257	10,41725	-19,67136	0,2044444	0,2138047	0,2368321	0,1950842	0,1720568	67	68	65	63
-0,02707857	0,06298591	-0,08241913	2,342529	-0,131639	0,0420107	5,839365	-14,47693	9,736174	0,2044444	0,2100815	0,1784948	0,1988074	0,230394	66	64	65	68
-0,02696746	0,06293796	-0,0825322	2,24274	0,1588239	0,2357967	-5,987294	17,42774	11,62714	0,2044444	0,1714434	0,2094753	0,2374455	0,1994136	63	66	68	65
-0,0274933	0,06247951	-0,08260161	2,229683	0,1159423	-0,09603284	-0,7834181	-2,572892	-19,90973	0,2044444	0,226728	0,223901	0,1821609	0,1849878	68	67	64	64
-0,02689101	0,06296842	-0,08234287	2,270042	0,08173435	0,04556279	2,421508	-2,052472	8,495721	0,2044444	0,1967282	0,194258	0,2121607	0,2146309	65	65	66	67
-0,02739611	0,06217388	-0,08265539	2,232852	-0,001976697	0,05134909	-2,231379	-5,022653	0,3471773	0,2044444	0,2086262	0,1985413	0,2002627	0,2103475	66	65	66	66
-0,02681829	0,06316853	-0,08236109	2,247683	0,1179194	-0,05409701	0,8898479	7,193753	-6,326754	0,2044444	0,2029392	0,2196851	0,2059497	0,1892038	66	67	66	65
-0,02742481	0,06273417	-0,08248473	2,264017	-0,04392188	-0,06996902	0,9800272	-9,710459	-0,9523189	0,2044444	0,2162461	0,1959468	0,1926427	0,2129421	67	65	65	67
-0,02695921	0,06279473	-0,08215881	2,373117	0,08778245	0,08215981	6,545979	7,902244	9,127712	0,2044444	0,1857151	0,2032752	0,2231738	0,2056137	64	66	67	66
-0,02715733	0,06308982	-0,08228455	2,241822	0,07509087	-0,0696765	-7,877668	-0,7614933	-9,110161	0,2044444	0,2142619	0,2142408	0,1946269	0,1946481	67	67	65	65
-0,02707154	0,06306322	-0,08253172	2,272025	-0,01814725	0,1353085	1,812183	-5,594276	12,29908	0,2044444	0,196568	0,1850165	0,2123208	0,2238723	65	64	66	67
-0,02688515	0,06355214	-0,08238269	2,442109	0,1711058	-0,1597427	10,20503	11,35516	-17,70304	0,2044444	0,2106787	0,2368111	0,1982102	0,1720777	66	68	65	63
-0,02720636	0,0628334	-0,08251167	2,290448	-0,07211097	-0,04886816	-9,099651	-14,59298	6,65246	0,2088889	0,2180392	0,187411	0,1997386	0,2303668	67	64	65	68
-0,02684941	0,06346544	-0,08228968	2,360623	0,2116527	-0,1079059	4,210488	17,02579	-3,542257	0,2133333	0,1988123	0,237097	0,2278543	0,1895697	65	68	68	65
-0,02720903	0,06283559	-0,08230207	2,316013	0,04530733	0,0318533	-2,676596	-9,980703	8,385535	0,2222222	0,2230458	0,2039905	0,2213987	0,2404539	67	66	67	69
-0,0269876	0,06301769	-0,08230434	2,235068	0,0653998	0,1345491	-4,856691	1,205546	6,161734	0,2266667	0,2172999	0,221019	0,2360334	0,2323143	67	67	68	68
-0,02719766	0,06260091	-0,08253361	2,267207	0,009461118	0,08659841	1,92834	-3,356315	-2,877034	0,2266667	0,2319394	0,225416	0,2213939	0,2279173	68	68	67	68
-0,02682484	0,06331964	-0,08221548	2,235783	0,09186963	0,03212644	-1,885439	4,944501	-3,268312	0,2311111	0,228195	0,2399214	0,2340273	0,2223009	68	69	68	67
-0,02729777	0,06245986	-0,08231322	2,324155	-0,2385567	0,04040741	5,302309	-19,82554	0,4968572	0,2311111	0,2524213	0,2079991	0,2098009	0,2542231	70	66	66	70
-0,0265937	0,06358139	-0,08224361	2,383486	0,1271976	0,02247841	3,559821	21,94522	-1,075738	0,2311111	0,2087449	0,2551793	0,2534773	0,207043	66	70	70	66
-0,02717415	0,06266427	-0,08228174	2,137179	0,0558199	0,009369837	-14,77837	-4,282652	-0,7865126	0,2355556	0,2399728	0,2325239	0,2311383	0,2385872	69	68	68	69
-0,02673026	0,06334238	-0,0822714	2,359184	0,08968626	0,1576869	13,3203	2,031977	8,899009	0,2355556	0,2221508	0,2280085	0,2489603	0,2431026	67	68	69	69
-0,02722648	0,06276783	-0,08211808	2,108819	-0,01679871	-0,01877315	-15,02186	-6,389085	-10,58758	0,2355556	0,2528879	0,2397738	0,2182232	0,2313373	70	69	67	68
-0,02694927	0,06330714	-0,08221766	2,347822	0,2271812	-0,05706369	14,34011	14,63877	-2,297428	0,2355556	0,221513	0,2553342	0,2495981	0,2157769	67	70	69	67
-0,02710084	0,06276023	-0,08269339	2,275353	0,02264825	-0,0397866	-4,348117	-12,27195	1,036623	0,2355556	0,2469623	0,2228713	0,2241488	0,2482398	69	67	67	69
-0,02697289	0,06321499	-0,08225828	2,337297	0,2171765	-0,06204164	3,716662	11,67167	-1,3353	0,24	0,2281123	0,2557991	0,2518877	0,2242008	68	70	70	67
-0,02698663	0,06267794	-0,08274622	2,52559	0,04191638	-0,1220786	11,29751	-10,51559	-3,60221	0,24	0,2549194	0,2347266	0,2250806	0,2452734	70	68	68	69
-0,026828	0,06314906	-0,08227169	2,344444	0,1029294	0,01490793	-10,8687	3,660776	8,219175	0,24	0,2269417	0,2363218	0,2530583	0,2436782	68	68	70	69
-0,027127	0,0633317	-0,08226209	2,101957	0,1400134	0,08566172	-14,54922	2,225036	4,245219	0,2444444	0,2357174	0,2429678	0,2531714	0,2459211	68	69	70	69
