X	Y	Z	Yaw	Pitch	Roll	VYaw	VPitch	VRoll	Thrust	T1	T2	T3	T4	PWM1	PWM2	PWM3	PWM4
-0,2554849	0,379295	0,2829598	39,34886	13,56938	2,865174	5,229482	-2,20474	2,728783	0	0	0	0,005240425	0,04933523	0	0	0	0
-0,2560303	0,3793726	0,2827357	39,19247	13,54237	2,500563	3,962692	-1,890841	-0,5202889	0	0,0241113	0	0	0,01370552	0	0	0	0
-0,2565947	0,3794004	0,2826802	38,89793	13,70351	2,192191	1,801342	-0,9938946	-3,436896	0	0,0443079	0,02443001	0	0	0	0	0	0
-0,2570638	0,3794099	0,282665	38,63846	13,95839	2,033343	-0,5088492	0,3191922	-5,854769	0	0,05535576	0,06173961	0	0	0	0	0	0
-0,2579542	0,3795796	0,2827072	38,3141	14,14435	1,854717	-3,309991	0,7509998	-9,32768	0	0,08576679	0,1007868	0	0	0	0	0	0
-0,2587019	0,3797406	0,2826438	38,09134	14,28951	1,767929	-4,89163	1,204608	-10,81129	0	0,09606682	0,120159	0	0	0	0	0	0
-0,2593628	0,3799445	0,282382	37,96627	14,34952	1,72558	-6,383433	1,010368	-12,15423	0	0,1114386	0,131646	0	0	0	0	0	0
-0,2600814	0,3802864	0,2820531	37,99406	14,29618	1,690055	-6,859369	1,43357	-13,67342	0	0,1223985	0,1510699	0	0	0	0	0	0
-0,2608307	0,380734	0,2816131	38,12952	14,22802	1,790124	-7,343682	1,441255	-11,0959	0	0,09654649	0,1253716	0	0	0	0	0	0
-0,2614411	0,3812455	0,2811625	38,35499	14,19492	1,945135	-6,193256	2,76186	-7,951181	0	0,0518932	0,1071304	0	0	0	0	0	0
-0,2619238	0,3819242	0,2807372	38,61032	13,98833	2,170036	-4,431235	2,513667	-4,170818	0	0,01657151	0,06684485	0	0	0	0	0	0
-0,2623823	0,3826509	0,2805505	38,8312	13,80199	2,333427	-2,167667	1,557721	-1,002818	0	0	0,02560539	0,005549028	0	0	0	0	0
-0,2627589	0,3834643	0,2805734	39,0417	13,65263	2,498216	0,862631	-0,305282	1,836142	0	0	0	0,0153086	0,02141424	0	0	0	0
-0,2632561	0,3843214	0,2807273	39,19427	13,49156	2,660787	3,334847	-2,800999	3,764657	0	0	0	0,009636577	0,06565656	0	0	0	0
-0,2636311	0,3849614	0,280865	39,23073	13,34833	2,855006	5,499768	-4,776096	6,001721	0	0	0	0,01225625	0,1077782	0	0	0	0
-0,2640623	0,3854823	0,2810456	39,21153	13,26198	3,00841	6,721148	-6,165132	7,44287	0	0	0	0,01277738	0,13608	0	0	0	0
-0,2645337	0,385893	0,2812541	39,15243	13,23271	3,088742	7,116952	-6,700829	8,17896	0	0	0	0,01478131	0,1487979	0	0	0	0
-0,2651201	0,3863339	0,281522	39,08952	13,17703	3,105663	6,572718	-6,714899	8,493636	0	0	0	0,01778737	0,1520853	0	0	0	0
-0,2656762	0,3866211	0,281762	39,04528	13,15075	3,084298	5,494549	-6,463605	7,765028	0	0	0	0,01301423	0,1422863	0	0	0	0
-0,2663257	0,3868376	0,2819826	39,00528	13,06357	3,073057	3,901741	-6,788113	6,767519	0	0,000205934	0	0	0,1355563	0	0	0	0
-0,2673149	0,3869911	0,2823703	38,94361	12,86888	2,998715	1,999737	-6,716702	4,972065	0	0,01744637	0	0	0,1168877	0	0	0	0
-0,268191	0,3869016	0,282793	38,87429	12,76465	2,980865	0,2585902	-6,224074	3,884624	0	0,02339451	0	0	0,101087	0	0	0	0
-0,2686564	0,386726	0,2833143	38,73944	12,62415	3,174657	-1,813565	-6,170848	4,058639	0	0,02112209	0	0	0,1022949	0	0	0	0
-0,2690485	0,3864303	0,283634	38,68798	12,63515	3,225265	-3,037737	-5,138467	3,386864	0	0,01751604	0	0	0,08525331	0	0	0	0
-0,2696735	0,3858593	0,284223	38,56575	12,68366	3,266841	-3,989883	-3,988001	2,471006	0	0,01516994	0	0	0,06459007	0	0	0	0
-0,2702698	0,3850193	0,2849069	38,45248	12,7726	3,342088	-4,554305	-2,936296	2,002061	0	0,00934235	0	0	0,04938358	0	0	0	0
-0,2707199	0,3839991	0,2856365	38,3633	12,89202	3,390261	-4,734755	-2,04414	1,809108	0	0,002350312	0	0	0,03853248	0	0	0	0
-0,2711155	0,3830149	0,2862202	38,26346	13,08325	3,336993	-4,956335	-0,5626362	1,387974	0	0	0	0,008253377	0,0195061	0	0	0	0
-0,2715273	0,3819304	0,2869631	38,17465	13,19421	3,211156	-5,223805	0,2607989	0,7611479	0	0	0	0,01021947	0,00500349	0	0	0	0
-0,2718824	0,3809051	0,2876592	38,04937	13,25615	3,1171	-5,735493	1,155473	0,264255	0	0	0,008912185	0,01419728	0	0	0	0	0
-0,2720931	0,3796116	0,2882794	37,91325	13,40987	3,092677	-6,182155	3,24595	0,5637678	0	0	0,02682182	0,03809718	0	0	0	0	0
-0,2723456	0,3782567	0,2888994	37,77808	13,5694	3,127288	-6,577273	4,828499	0,8785369	0	0	0,03949962	0,05707036	0	0	0	0	0
-0,2725706	0,3768903	0,2894582	37,65712	13,73294	3,261886	-6,493891	6,65273	0,5233744	0	0	0,06129355	0,07176103	0	0	0	0	0
-0,2726639	0,3754289	0,2900202	37,57369	13,90915	3,545851	-6,68574	7,643992	1,923509	0	0	0,05720483	0,09567501	0	0	0	0	0
-0,2726198	0,3742548	0,290512	37,57169	14,16469	3,837627	-5,964351	8,886166	3,424712	0	0	0,05461453	0,1231088	0	0	0	0	0
-0,2727334	0,3730906	0,2908883	37,61503	14,3655	3,994751	-5,024702	9,557411	3,915973	0	0	0,05641438	0,1347338	0	0	0	0	0
-0,2725591	0,371941	0,2909733	37,73721	14,47055	4,261805	-3,756539	9,471147	5,229255	0	0	0,04241892	0,147004	0	0	0	0	0
-0,2724763	0,3710885	0,2911029	37,90375	14,48403	4,44574	-2,15826	8,404656	6,652472	0	0	0,01752184	0,1505713	0	0	0	0	0
-0,2721513	0,3701065	0,2911758	38,09488	14,41804	4,656491	-0,4786137	7,342933	8,671989	0	0	0	0,1601492	0,01329057	0	0	0	0
-0,2717994	0,369207	0,2913573	38,27868	14,42093	4,813856	1,375875	6,988698	10,18052	0	0	0	0,1716922	0,0319182	0	0	0	0
-0,2713329	0,3682128	0,2915281	38,44727	14,37995	5,048138	3,204111	5,820488	11,73274	0	0	0	0,1755323	0,05912254	0	0	0	0
-0,2709064	0,367173	0,2920201	38,61972	14,40564	5,274653	5,04981	5,017423	12,88417	0	0	0	0,1790159	0,07866742	0	0	0	0
-0,2705994	0,3664183	0,2922841	38,69886	14,44342	5,488278	6,25043	4,26283	13,35833	0	0	0	0,1762116	0,09095498	0	0	0	0
-0,2698467	0,3641532	0,2932019	38,87841	14,27969	6,075731	7,828339	2,223234	15,17925	0	0	0	0,1740248	0,1295602	0	0	0	0
-0,2694344	0,3625351	0,2942375	38,99075	14,25736	6,553751	8,514319	0,5559643	16,29671	0	0	0	0,1685267	0,1574074	0	0	0	0
-0,2689256	0,3606967	0,2951741	39,07095	14,2809	7,101971	8,735533	-0,5076303	18,64328	0	0	0	0,1813565	0,1915091	0	0	0	0
-0,2683768	0,3590455	0,2962171	39,09157	14,39851	7,592792	8,126136	-0,4321853	19,98588	0	0	0	0,195537	0,2041807	0	0	0	0
-0,26794	0,3573197	0,2970794	39,07834	14,40296	8,064338	7,047533	-0,4864016	21,71154	0	0	0	0,2122514	0,2219794	0	0	0	0
-0,2677478	0,3557106	0,2980534	39,07915	14,34933	8,469733	5,905598	-0,4122383	22,87941	0	0	0	0,2246717	0,2329165	0	0	0	0
-0,2675407	0,3543459	0,298907	39,10018	14,21424	8,794476	4,928984	-1,240177	23,88367	0	0	0	0,2264349	0,2512385	0	0	0	0
-0,2673143	0,3531095	0,299694	39,09808	14,14409	9,092935	3,904854	-1,415156	24,26873	0	0	0	0,2285358	0,2568389	0	0	0	0
-0,2671003	0,3521476	0,3006152	39,09632	14,15652	9,284439	2,859621	-1,494727	24,05867	0	0	0	0,2256394	0,2555339	0	0	0	0
-0,2670619	0,3512665	0,301514	39,0015	14,21742	9,398052	1,81583	-1,355979	23,4586	0	0	0	0,2210262	0,2481458	0	0	0	0
-0,2670746	0,3506637	0,3024683	38,77593	14,19254	9,417932	-0,6149127	-0,5228738	20,05317	0	0	0	0,1953029	0,2057604	0	0	0	0
-0,2672871	0,3501647	0,3035436	38,39683	14,15782	9,328562	-3,563477	-0,5972087	16,64884	0	0	0	0,1605163	0,1724605	0	0	0	0
-0,2673632	0,3497188	0,3047786	37,94541	14,17966	9,193143	-6,75326	-0,6074283	12,54701	0	0	0	0,1193958	0,1315444	0	0	0	0
-0,267177	0,349293	0,3059632	37,50317	14,34202	8,987001	-9,53037	-0,3389447	8,36524	0	0	0	0,08026295	0,08704185	0	0	0	0
-0,2671537	0,3490224	0,3073705	37,13663	14,59764	8,742012	-11,65022	1,168039	4,066038	0	0	0	0,05234076	0,02897998	0	0	0	0
-0,2668062	0,3489044	0,3088333	36,76269	14,93314	8,481202	-13,89871	3,502812	0,06881318	0	0	0,03433999	0,03571625	0	0	0	0	0
-0,2664168	0,3488173	0,3099937	36,44992	15,21842	8,313073	-15,90151	6,025102	-2,888409	0	0	0,08913511	0,03136693	0	0	0	0	0
-0,2661707	0,3490911	0,3111159	36,16425	15,40463	8,214598	-17,60297	7,563208	-5,270011	0	0	0,1283322	0,02293197	0	0	0	0	0
-0,2659873	0,3498358	0,3121497	35,98953	15,52313	8,151224	-18,6407	8,199687	-6,799276	0	0	0,1499896	0,0140041	0	0	0	0	0
-0,2657862	0,350931	0,3127249	35,88673	15,47091	8,117846	-18,68858	7,520916	-7,68122	0	0,00160303	0,1520213	0	0	0	0	0	0
-0,26569	0,3522738	0,3130126	35,91267	15,26797	8,191133	-17,17952	6,452544	-7,360774	0	0,009082302	0,1381332	0	0	0	0	0	0
-0,2656125	0,3536928	0,31315	36,0185	14,92537	8,353492	-14,26998	4,605271	-5,850409	0	0,01245138	0,1045568	0	0	0	0	0	0
-0,2654633	0,355326	0,3130909	36,19605	14,61243	8,466879	-10,49611	2,596613	-4,357575	0	0,01760962	0,06954189	0	0	0	0	0	0
-0,2653463	0,3561009	0,3129274	36,2527	14,46349	8,559759	-7,502823	0,7288154	-2,563449	0	0,01834633	0,03292264	0	0	0	0	0	0
-0,2650773	0,3576318	0,3125187	36,36211	14,20001	8,661934	-4,647116	-2,38574	-0,4804678	0	0,02866208	0	0	0,01905272	0	0	0	0
-0,2645754	0,3592755	0,3118736	36,38128	13,90085	8,725018	-2,288493	-6,193674	1,46289	0	0,04730784	0	0	0,07656563	0	0	0	0
-0,2637296	0,360664	0,3109984	36,36459	13,68782	8,933316	-0,5119848	-9,183631	3,721451	0	0,0546218	0	0	0,1290508	0	0	0	0
-0,2629599	0,3622131	0,3101809	36,3755	13,48706	8,98317	1,267545	-11,5054	4,611422	0	0,06893976	0	0	0,1611682	0	0	0	0
-0,2620049	0,3636478	0,3091587	36,43181	13,35228	9,057109	2,653674	-13,02508	5,435298	0	0,0758978	0	0	0,1846038	0	0	0	0
-0,26105	0,3649983	0,3080601	36,50151	13,19661	9,077686	3,688675	-13,64579	5,759027	0	0,0788676	0	0	0,1940482	0	0	0	0
-0,2600458	0,3664233	0,3067411	36,51922	12,94601	9,097708	3,639306	-13,93171	5,439435	0	0,08492278	0	0	0,1937115	0	0	0	0
-0,2590558	0,3677692	0,305254	36,59415	12,65275	9,1575	3,453935	-13,63568	4,824041	0	0,08811636	0	0	0,1845972	0	0	0	0
-0,2580542	0,3688622	0,3036563	36,70708	12,3939	9,285379	3,066141	-13,31112	4,910994	0	0,0840013	0	0	0,1822212	0	0	0	0
-0,2571591	0,3699871	0,3019403	36,85598	12,18258	9,431524	3,61969	-13,68548	5,230581	0	0,08454895	0	0	0,1891606	0	0	0	0
-0,2562425	0,3708934	0,3000442	37,00444	11,87037	9,605932	3,853997	-13,97781	5,663979	0	0,0831383	0	0	0,1964179	0	0	0	0
-0,2554376	0,3717225	0,2982514	37,11928	11,59663	9,811935	4,428031	-13,82532	6,521494	0	0,07303823	0	0	0,2034681	0	0	0	0
-0,2547585	0,372447	0,2965499	37,25307	11,25513	9,98823	5,330853	-14,59606	6,329469	0	0,08266594	0	0	0,2092553	0	0	0	0
-0,2540475	0,3729266	0,2951606	37,30707	10,94644	10,09713	5,589398	-15,2437	6,683777	0	0,08559923	0	0	0,2192748	0	0	0	0
-0,2532137	0,3732069	0,2938805	37,35257	10,58868	10,07784	5,52451	-16,58156	6,124391	0	0,1045717	0	0	0,2270595	0	0	0	0
-0,2524611	0,373191	0,293141	37,33109	10,30863	9,899098	4,977438	-17,32784	4,928463	0	0,1239937	0	0	0,222563	0	0	0	0
-0,2519931	0,3733172	0,2930899	37,28973	10,22989	9,610729	4,623015	-16,29672	3,078123	0	0,132186	0	0	0,1937484	0	0	0	0
-0,2515735	0,3731151	0,2933897	37,17751	10,3119	9,319835	3,5001	-14,04505	0,9740049	0	0,1307105	0	0	0,1501906	0	0	0	0
-0,2513131	0,3729198	0,2941643	36,92083	10,43338	9,054158	1,282514	-11,76312	-1,387324	0	0,1315045	0	0	0,103758	0	0	0	0
-0,2511156	0,37261	0,2952766	36,65562	10,59958	8,8295	-1,202176	-9,497931	-3,612137	0	0,1311007	0	0	0,05885794	0	0	0	0
-0,2511939	0,3723513	0,2967145	36,43455	10,77135	8,664462	-3,419373	-6,594136	-5,64881	0	0,1224295	0	0	0,009453259	0	0	0	0
-0,2515364	0,3720955	0,2983467	36,26305	10,94639	8,641291	-5,137357	-3,901403	-7,023855	0	0,1092526	0,03122451	0	0	0	0	0	0
-0,2520835	0,3719511	0,3000767	36,11685	11,04485	8,729028	-6,817301	-1,261703	-7,555197	0	0,088169	0,06293494	0	0	0	0	0	0
-0,2527178	0,3719043	0,3017469	36,01763	11,086	8,934145	-7,736649	0,8373684	-6,977924	0	0,06140555	0,07815292	0	0	0	0	0	0
-0,2536129	0,3719658	0,3033346	35,88118	11,05998	9,290469	-8,828321	2,827778	-4,724232	0	0,01896454	0,0755201	0	0	0	0	0	0
-0,2545459	0,3721978	0,3047683	35,77831	11,00514	9,698009	-9,316663	4,179054	-1,206531	0	0	0,05385585	0,02972523	0	0	0	0	0
-0,2554806	0,3724577	0,3060028	35,64381	11,02495	10,09424	-9,875477	4,770352	2,901089	0	0	0,01869263	0,07671441	0	0	0	0	0
-0,2564031	0,3727041	0,3069747	35,47544	11,03673	10,51837	-10,21239	4,348935	7,191179	0	0	0	0,1154011	0,02842244	0	0	0	0
-0,257025	0,3731263	0,307704	35,35224	10,95791	10,8761	-9,411511	3,147194	10,93163	0	0	0	0,1407882	0,07784434	0	0	0	0
-0,2577354	0,3734476	0,3084534	35,26692	10,86382	11,19653	-8,332152	1,585404	14,20214	0	0	0	0,1578754	0,1261673	0	0	0	0
-0,2582194	0,3737868	0,3089797	35,24775	10,79327	11,41263	-7,120775	0,1314981	16,48899	0	0	0	0,1662049	0,1635749	0	0	0	0
-0,2586296	0,3742312	0,3094245	35,2566	10,71332	11,53357	-6,038715	-1,398471	17,35362	0	0	0	0,1595515	0,1875209	0	0	0	0
-0,2588976	0,3745409	0,3096766	35,2733	10,65749	11,6022	-5,061254	-2,324182	17,23901	0	0	0	0,1491483	0,195632	0	0	0	0
-0,2591565	0,3748107	0,3098494	35,27217	10,59249	11,60502	-4,472754	-2,961061	16,02519	0	0	0	0,1306413	0,1898626	0	0	0	0
-0,259402	0,375082	0,3099976	35,23989	10,60794	11,52668	-3,847679	-2,712222	13,41724	0	0	0	0,1070502	0,1612946	0	0	0	0
-0,2596156	0,3752379	0,310062	35,18043	10,68351	11,42533	-3,587281	-1,929751	10,36388	0	0	0	0,0843413	0,1229363	0	0	0	0
-0,2597904	0,3752554	0,310046	35,10438	10,7352	11,32428	-3,236566	-1,738492	7,380223	0	0	0	0,05641732	0,09118715	0	0	0	0
-0,2598641	0,3752157	0,3100309	35,06993	10,7383	11,26972	-2,433055	-1,790568	4,508088	0	0	0	0,0271752	0,06298655	0	0	0	0
-0,2600964	0,374875	0,3099172	35,04844	10,76372	11,15404	-1,822788	-1,165138	1,667618	0	0	0	0,005024803	0,02832756	0	0	0	0
-0,2603126	0,3744951	0,3097663	35,11219	10,87184	11,16965	-0,9283887	0,04813372	-0,161247	0	0,001131133	0,002093807	0	0	0	0	0	0
-0,2605768	0,3740516	0,3095474	35,18298	11,00312	11,28926	-0,3886177	1,259139	-0,7402368	0	0	0,01999376	0,005189026	0	0	0	0	0
-0,2606693	0,3738692	0,3094138	35,20074	11,03291	11,37595	-0,3351281	1,91754	-0,9456978	0	0	0,02863237	0,009718417	0	0	0	0	0
-0,2607978	0,3735668	0,3090906	35,22859	11,01269	11,58191	-0,2682947	2,131206	-0,1217248	0	0	0,02252931	0,02009481	0	0	0	0	0
-0,2609776	0,373384	0,3087173	35,26509	10,89122	11,75167	-0,04245745	1,79241	0,8799231	0	0	0,009124871	0,02672333	0	0	0	0	0
-0,2611934	0,3734024	0,3082768	35,29967	10,71679	11,86048	0,3586343	0,6530787	2,00281	0	0	0	0,02655888	0,01349731	0	0	0	0
-0,2614902	0,3735135	0,307732	35,37563	10,53187	11,89369	1,171209	-0,9098836	2,81016	0	0	0	0,01900276	0,03720044	0	0	0	0
-0,2618173	0,3736712	0,3072293	35,41552	10,33929	11,8883	1,866802	-2,37544	3,384091	0	0	0	0,01008652	0,05759531	0	0	0	0
-0,2620544	0,3739131	0,306839	35,43092	10,20035	11,95061	2,165973	-3,227663	4,085384	0	0	0	0,008577213	0,07313047	0	0	0	0
-0,2622409	0,3742217	0,3065352	35,44627	10,1669	12,0046	2,386981	-3,580901	5,10338	0,004444445	0	0	0,01966923	0,09128725	0	0	0	0
-0,2623363	0,3746493	0,3063781	35,46192	10,17059	11,99977	2,098385	-4,207515	4,980717	0,02666667	0,01893465	0	0,03439868	0,118549	51	50	52	59
-0,2623714	0,3752311	0,3063042	35,4723	10,1039	11,91247	1,735928	-5,395301	3,739264	0,04888889	0,06544925	0	0,03232852	0,1402345	55	50	52	61
-0,2624064	0,3761609	0,3062184	35,46799	9,91498	11,68069	1,603451	-6,707547	1,828465	0,04888889	0,09767971	0	9,81E-05	0,134249	57	50	50	60
-0,2624743	0,3770199	0,3063594	35,4385	9,77428	11,43889	1,259443	-7,430429	-0,8581336	0,05333333	0,136219	0	0	0,1190563	60	50	50	59
-0,2626454	0,3780735	0,3068518	35,40274	9,678937	11,13529	0,8258956	-7,273713	-3,69826	0,04888889	0,1586086	0,01313436	0	0,08464342	62	51	50	56
-0,2626375	0,3792411	0,3072928	35,30773	9,606859	10,96559	0,04836261	-6,659562	-5,369357	0,04888889	0,1691781	0,03598684	0	0,06179093	63	52	50	54
-0,2627372	0,3803419	0,3076435	35,15369	9,508646	10,868	-1,331632	-6,139303	-6,154088	0,05333333	0,1762672	0,05348119	0	0,05318548	64	54	50	54
-0,2629369	0,3814535	0,3080647	35,0089	9,404017	10,75519	-2,439692	-5,611622	-6,798658	0,05333333	0,1774361	0,0652037	0	0,04146297	64	55	50	53
-0,2629965	0,3828528	0,3085127	34,94287	9,168282	10,60019	-2,928308	-6,19242	-8,102561	0,05333333	0,1962831	0,07243474	0	0,03423193	65	55	50	52
-0,2629166	0,3844345	0,3089351	35,01148	8,981028	10,3887	-2,608767	-7,115247	-9,695375	0,04888889	0,2169951	0,07469016	0	0,02308761	67	55	50	51
-0,2628134	0,3860258	0,3093346	35,08771	8,687712	10,18828	-2,245281	-8,897238	-10,86894	0,05333333	0,2509951	0,07305038	0	0,03361629	70	55	50	52
-0,2626183	0,3877337	0,3098817	35,14791	8,36232	9,969079	-1,946362	-10,44949	-11,66033	0,07111111	0,2922093	0,08321957	0	0,05900266	73	56	50	54
-0,2623832	0,3895802	0,3104362	35,18488	8,128119	9,659481	-1,69862	-10,72114	-12,12726	0,08	0,308484	0,09406115	0	0,06593885	74	57	50	55
-0,2619112	0,3914955	0,3110351	35,17156	7,905866	9,437729	-1,60162	-11,21046	-12,00696	0,08	0,3121742	0,08796495	0	0,07203504	74	57	50	55
-0,261621	0,3934568	0,3116696	35,12048	7,756786	9,204877	-1,693562	-11,53288	-11,58247	0,08	0,3111535	0,08049584	0	0,07950415	74	56	50	56
-0,2614646	0,3955638	0,3123416	35,01331	7,546549	8,966804	-1,766484	-12,36184	-11,99268	0,08	0,3235452	0,07630845	0	0,08369154	75	56	50	56
-0,2610427	0,3972155	0,3127116	34,90963	7,158587	8,719872	-1,464383	-14,10033	-12,88876	0,08	0,3498909	0,06788437	0	0,09211563	77	55	50	57
-0,2612332	0,398987	0,3131169	34,76279	7,125668	8,176565	-1,476651	-13,67007	-15,47171	0,08	0,3714178	0,0980164	0	0,0619836	79	57	50	54
-0,2613579	0,4002458	0,3135613	34,75112	7,084386	7,907142	-1,150495	-12,50335	-16,15823	0,08	0,3666157	0,1165488	0	0,04345119	79	59	50	53
-0,2613066	0,4015573	0,3135363	34,57315	7,302644	7,582899	-2,629939	-10,07028	-16,83479	0,08	0,3490507	0,1476451	0	0,0123549	77	61	50	50
-0,2614912	0,4019983	0,3137143	34,49299	7,189493	7,569316	-3,568284	-8,989297	-15,71375	0,08	0,3270305	0,1472446	0	0,01275542	76	61	50	51
-0,2615986	0,402538	0,3136616	34,33852	7,34553	7,469989	-4,856337	-6,100728	-14,99451	0,08	0,2909524	0,1689378	0	0	73	63	50	50
-0,2616242	0,4028572	0,3135288	34,22232	7,315411	7,405401	-5,775364	-4,876244	-13,52446	0,08	0,264007	0,1664821	0	0	71	63	50	50
-0,2617385	0,4029916	0,3134536	34,24714	7,286323	7,244121	-5,546505	-3,717251	-13,16162	0,08	0,2487887	0,1744437	0	0	69	63	50	50
-0,2618246	0,4029235	0,3133428	34,36828	7,307159	7,139043	-4,513175	-2,697756	-12,39498	0,08	0,2309273	0,1769722	0	0	68	64	50	50
-0,2618514	0,402742	0,3133107	34,49151	7,339527	7,145371	-3,1308	-1,242131	-10,92857	0,08	0,201707	0,1768644	0	0	66	64	50	50
-0,2618153	0,4024502	0,3133129	34,59546	7,416804	7,2672	-1,885021	1,549298	-8,716015	0,08	0,1516672	0,1826531	0,008332832	0	62	64	50	50
-0,2617114	0,4021087	0,313264	34,66701	7,599459	7,433925	-0,5746983	2,842744	-4,455834	0,08	0,09613089	0,1529858	0,0638691	0,007014219	57	62	55	50
-0,2617247	0,401954	0,3134956	34,74842	7,543439	7,626086	-0,0161819	2,75431	-1,686335	0,08	0,06932025	0,1244064	0,09067975	0,03559355	55	59	57	52
-0,2617462	0,4016671	0,3135469	34,82035	7,550228	7,820707	1,483151	1,4855	1,426847	0,08	0,05087653	0,08058654	0,1091235	0,07941346	54	56	58	56
-0,2616488	0,4013419	0,3135674	34,96868	7,497714	7,967355	2,854128	1,849324	2,388231	0,08	0,03762444	0,07461093	0,1223756	0,08538906	53	55	59	56
-0,2612795	0,4011291	0,3133797	34,97829	7,501895	8,039243	3,838661	0,9381877	3,415517	0,08	0,03646296	0,05522671	0,123537	0,1047733	52	54	59	58
-0,261234	0,4011455	0,3133643	35,13645	7,543258	8,109266	5,484776	1,36708	4,223185	0,08	0,02409735	0,05143895	0,1359026	0,108561	51	54	60	58
-0,2610908	0,401047	0,3132042	35,19067	7,346556	8,13595	5,661175	0,3614009	5,350966	0,08	0,02287633	0,03010434	0,1371237	0,1298957	51	52	60	60
-0,2607993	0,400696	0,3130174	35,26539	7,325267	7,837822	5,382649	0,10865	4,192664	0,08	0,03698686	0,03915986	0,1230131	0,1208401	52	53	59	59
-0,260424	0,4008605	0,3125808	35,24209	7,315738	7,758816	4,503448	-0,1427332	3,680665	0,08	0,04462069	0,04176602	0,1153793	0,118234	53	53	59	59
-0,2603952	0,4007721	0,3125743	35,28406	7,267275	7,573255	4,131607	-0,8971721	1,836324	0,08	0,07060848	0,05266504	0,08939151	0,107335	55	54	57	58
-0,2599424	0,4006431	0,3125502	35,39226	7,315322	7,234592	4,351493	-1,704817	-1,195991	0,08	0,1090081	0,07491174	0,05099192	0,08508826	58	55	54	56
-0,2594893	0,4003354	0,311958	35,3313	7,525156	6,868565	3,497262	-0,1097	-4,545118	0,08	0,1265482	0,1243542	0,03345181	0,03564582	60	59	52	52
-0,2589692	0,400016	0,3114414	35,09995	7,675641	6,583529	1,677609	0,7524734	-7,423056	0,08	0,1467058	0,1617553	0,01329418	0	61	62	51	50
-0,2587308	0,3991497	0,3113856	35,19675	7,530315	6,492298	1,368413	0,1956049	-8,850326	0,08	0,1665472	0,1704593	0	0	63	63	50	50
-0,2584427	0,3983549	0,3110621	35,19235	7,592627	6,313033	1,284322	0,5443887	-10,35724	0,08444444	0,182573	0,1934607	0	0	64	65	50	50
-0,2579015	0,3975713	0,3107453	35,24718	7,706733	6,182104	0,6643968	0,9808512	-11,56295	0,08444444	0,1902654	0,2098825	0	0	65	66	50	50
-0,2576235	0,3970726	0,3104617	35,28344	7,751392	6,084591	0,5565937	2,429009	-12,30813	0,08444444	0,1832356	0,2318158	0	0	64	68	50	50
-0,2579286	0,3967627	0,3104836	35,3022	8,010185	5,964961	0,2208476	4,109499	-11,23715	0,08888889	0,1601654	0,2423553	0,01761242	0	62	69	51	50
-0,2577782	0,3960443	0,3101864	35,40206	8,014813	6,040051	0,9598369	4,194443	-10,31257	0,08888889	0,1500702	0,2339591	0,02770758	0	62	68	52	50
-0,2576474	0,3950961	0,3097501	35,51651	7,607458	6,449051	1,394711	2,041095	-6,745209	0,08888889	0,13593	0,1767519	0,04184776	0,001025848	60	64	53	50
-0,2578291	0,394738	0,309596	35,62327	7,522199	6,579926	1,38606	1,241255	-3,927988	0,08888889	0,1157562	0,1405813	0,06202156	0,03719646	59	61	54	52
-0,2579152	0,394999	0,3095664	35,75692	7,32902	6,961702	2,553721	-1,176814	0,5588256	0,08444444	0,09062432	0,06708805	0,07826456	0,1018008	57	55	56	58
-0,2580839	0,3948089	0,3096766	35,803	7,340201	7,02931	4,218284	-2,012631	2,674685	0,08888889	0,08226836	0,04201573	0,09550942	0,1357621	56	53	57	60
-0,2581788	0,3947494	0,3095974	35,92955	7,390033	7,551044	4,396811	-0,8416913	6,35246	0,08888889	0,03378121	0,01694738	0,1439966	0,1608304	52	51	61	62
-0,2585623	0,3954152	0,3099998	35,92293	7,131834	7,516218	4,383468	-2,764753	7,2191	0,08888889	0,04434542	0	0,1334324	0,1887274	53	50	60	65
-0,2587515	0,3957587	0,3101065	35,96903	7,098281	7,675943	4,331077	-3,650707	8,963016	0,08888889	0,0357658	0	0,142012	0,2150261	52	50	61	67
-0,2584737	0,3957787	0,3100194	36,00002	6,685462	8,027963	4,299468	-6,395567	11,6602	0,08888889	0,03624251	0	0,1415353	0,2694466	52	50	61	71
-0,2591138	0,3964748	0,3106564	36,08935	6,691479	7,836146	4,722876	-7,912224	11,22709	0,09333333	0,06018467	0	0,126482	0,2847265	54	50	60	72
-0,2592722	0,3969487	0,3105847	36,02212	6,569693	7,909003	3,72033	-8,670705	11,21369	0,09333333	0,06790344	0	0,1187632	0,2921773	55	50	59	73
-0,2592815	0,3981315	0,3103036	35,73597	6,616524	7,772248	1,316755	-5,945592	7,939163	0,1066667	0,08673096	0	0,1266024	0,2455142	56	50	60	69
-0,25949	0,3986746	0,3105336	35,72184	6,457726	7,730195	0,5914525	-6,386824	6,901598	0,1111111	0,1059634	0	0,1162589	0,2439953	58	50	59	69
-0,2596588	0,3989945	0,3108408	35,80094	6,285979	7,58528	0,2641064	-6,258229	3,741458	0,1244444	0,1496122	0,02444758	0,09927674	0,2244413	61	51	57	67
-0,2597211	0,3994343	0,3111045	35,77736	6,189375	7,367892	-0,1538311	-6,904943	2,031485	0,1511111	0,1998457	0,06174683	0,1023765	0,2404754	65	54	58	69
-0,2597061	0,4000572	0,3112779	35,74124	6,209633	7,151783	-1,129896	-7,082383	-2,395558	0,1555556	0,250335	0,1086873	0,06077615	0,2024238	70	58	54	66
-0,2593687	0,4000996	0,3113404	35,81898	6,277326	7,246311	-0,6237016	-5,127038	-1,619439	0,1555556	0,2230203	0,1204796	0,0880908	0,1906316	67	59	57	65
-0,2595673	0,4008013	0,3111465	35,7886	6,256867	7,084962	-1,082586	-5,048471	-3,545876	0,1555556	0,241499	0,1405296	0,06961209	0,1705815	69	61	55	63
-0,2597789	0,4008337	0,3113694	35,86322	6,132306	6,763107	-0,8207685	-3,318932	-7,58912	0,16	0,2690805	0,2027019	0,05091948	0,1172981	71	66	54	59
-0,2599914	0,401466	0,3110953	35,9159	6,378744	6,611352	-1,040678	-1,876404	-7,348749	0,1555556	0,2478071	0,210279	0,06330404	0,1008321	69	66	55	58
-0,2598716	0,4011748	0,3108567	35,94954	6,02431	6,672786	-0,4354696	-3,272291	-7,41729	0,16	0,2668958	0,20145	0,05310418	0,11855	71	66	54	59
-0,2597066	0,4011818	0,3106492	35,93511	6,139668	6,761193	1,19483	-2,861132	-6,066315	0,16	0,2492745	0,1920518	0,07072553	0,1279482	69	65	55	60
-0,2602315	0,4013587	0,3109052	35,82409	6,114517	6,52024	0,6134708	-2,059252	-7,259717	0,1555556	0,2487452	0,2075602	0,06236588	0,1035509	69	66	54	58
-0,2601785	0,4012542	0,3110125	35,8999	5,956486	6,6631	0,5937412	-1,976954	-5,533067	0,16	0,2351002	0,1955611	0,08489978	0,1244389	68	65	56	59
-0,2606075	0,4016029	0,3108254	35,74954	6,103083	6,600281	-0,1669004	-0,5177554	-4,605654	0,16	0,2112341	0,200879	0,1087659	0,119121	66	66	58	59
-0,2603143	0,4015477	0,3104929	35,76269	6,157179	6,901437	0,1287228	-0,3147233	-1,502071	0,16	0,1781679	0,1718735	0,1418321	0,1481265	64	63	61	61
-0,2607489	0,4017161	0,3108459	35,87011	6,030797	6,870151	0,3067697	-1,479169	-2,256959	0,16	0,1973613	0,1677779	0,1226387	0,1522221	65	63	59	62
-0,2605658	0,4014705	0,310999	36,08865	5,99234	6,990692	1,800289	-1,587161	-0,5656201	0,16	0,1815278	0,1497846	0,1384722	0,1702154	64	61	61	63
-0,2607542	0,4021969	0,3109422	36,0769	5,872022	7,06135	1,282056	-1,561698	1,789458	0,16	0,1577224	0,1264884	0,1622776	0,1935115	62	60	62	65
-0,2608752	0,402585	0,3110241	36,12367	5,839807	7,045383	1,246625	-3,233619	2,604184	0,1555556	0,1618499	0,09717754	0,1492612	0,2139336	62	57	61	67
-0,2606656	0,4029219	0,3109311	36,16621	5,703602	6,929503	1,3	-1,924243	1,540303	0,1555556	0,159395	0,1209101	0,1517162	0,190201	62	59	62	65
-0,2607412	0,4033506	0,3110017	36,13968	5,708004	6,851724	1,227445	-2,589982	0,5431842	0,16	0,180468	0,1286683	0,139532	0,1913317	64	60	61	65
-0,2611646	0,4034945	0,3111807	36,03913	5,68246	6,636306	1,290273	-2,592334	0,6963974	0,16	0,1789594	0,1271127	0,1410406	0,1928873	64	60	61	65
-0,2605138	0,4035474	0,3108788	35,964	5,499013	6,780405	0,3846122	-2,744831	0,7038246	0,1555556	0,1759656	0,121069	0,1351455	0,1900421	64	59	60	65
-0,2605187	0,4046069	0,3108739	35,84803	5,673096	6,425978	0,590903	-2,579914	-1,045816	0,1555556	0,1918129	0,1402146	0,1192983	0,1708965	65	61	59	63
-0,2608486	0,4049203	0,3108186	35,73672	5,746858	6,039782	-0,1558225	-2,461922	-5,169921	0,1555556	0,231874	0,1826355	0,07923713	0,1284756	68	64	56	60
-0,2604329	0,4051448	0,3108921	35,80842	5,649024	5,974594	-0,3701242	-2,290636	-5,373328	0,16	0,2366396	0,1908269	0,08336035	0,1291731	68	65	56	60
-0,26058	0,405832	0,3105818	35,669	5,595444	5,552043	-2,517901	-2,381371	-8,631878	0,1555556	0,265688	0,2180606	0,04542308	0,09305049	71	67	53	57
-0,2609533	0,4064589	0,3108329	35,52221	5,486115	5,000541	-3,328096	-2,315439	-12,36483	0,1555556	0,3023583	0,2560495	0,008752838	0,05506161	74	70	50	54
-0,2603543	0,4063911	0,3100637	35,41618	5,264394	5,128608	-4,244926	-3,45247	-11,50063	0,16	0,309531	0,2404816	0,01046899	0,07951838	74	69	50	56
-0,2605148	0,4065896	0,3100618	35,42333	5,196177	4,790593	-4,457259	-3,044549	-12,83344	0,16	0,3187799	0,2578889	0,001220122	0,06211109	75	70	50	54
-0,2602469	0,4071963	0,3100716	35,29373	5,230403	4,599605	-5,075719	-2,865595	-13,51269	0,16	0,3237829	0,2664709	0	0,05352904	75	71	50	54
-0,2603995	0,4069861	0,3100913	35,23701	5,375018	4,626028	-4,812757	-1,844649	-12,06165	0,16	0,299063	0,26217	0,02093702	0,05783001	73	70	51	54
-0,2601222	0,4067323	0,3103593	35,3189	5,396579	4,655708	-3,87059	-0,6146038	-12,74816	0,16	0,2936276	0,2813355	0,02637241	0,03866448	73	72	52	53
-0,2600389	0,4066217	0,3103738	35,313	5,416777	5,019746	-3,210153	-1,537911	-8,437378	0,16	0,2597529	0,2289947	0,0602471	0,09100533	70	68	54	57
-0,2605392	0,4059151	0,3104135	35,47795	5,697495	4,938151	-1,552594	-0,2961754	-6,609771	0,16	0,2290595	0,223136	0,09094053	0,09686404	68	67	57	57
-0,26007	0,4055131	0,3106578	35,57092	5,603383	5,349034	-1,424993	-0,2738451	-3,753354	0,16	0,200272	0,1947951	0,119728	0,1252049	66	65	59	60
-0,2604795	0,4048887	0,310872	35,66479	5,638265	5,67111	-0,02524559	0,2569222	0,714399	0,16	0,1502868	0,1554252	0,1697132	0,1645748	62	62	63	63
-0,260533	0,4043008	0,3110567	35,84932	5,628275	5,940972	1,962658	0,852958	5,642576	0,1644444	0,09948911	0,1165483	0,2293998	0,2123406	57	59	68	66
-0,2604043	0,4035695	0,3112243	35,85819	5,660206	5,971375	2,652049	2,374871	5,056591	0,1688889	0,09457427	0,1420717	0,2432035	0,1957061	57	61	69	65
-0,260863	0,4033411	0,311441	36,05629	5,657561	6,378823	3,797737	2,768303	9,529362	0,1733333	0,05035668	0,1057227	0,29631	0,2409439	54	58	73	69
-0,2608606	0,4029125	0,3116189	36,16561	5,615798	6,621818	5,23129	2,312363	12,13325	0,1733333	0,02887716	0,07512442	0,3177895	0,2715423	52	56	75	71
-0,2608634	0,4028285	0,3115835	36,0705	5,711838	6,572246	5,000967	2,020917	11,67729	0,1777778	0,04079574	0,08121408	0,3147598	0,2743415	53	56	75	71
-0,2609604	0,4026392	0,3117989	36,06213	5,579131	6,404287	4,459388	1,095306	10,49145	0,1777778	0,06191018	0,0838163	0,2936454	0,2717392	54	56	73	71
-0,2610398	0,4026571	0,3118907	35,9613	5,556795	6,067513	3,889793	0,8401035	6,286588	0,1777778	0,1065109	0,1233129	0,2490447	0,2322426	58	59	69	68
-0,2604625	0,4030222	0,3113981	35,70971	5,864842	5,741102	1,3905	1,004077	4,817693	0,1777778	0,1195601	0,1396416	0,2359955	0,2159139	59	61	68	67
-0,2606679	0,4028548	0,311372	35,72221	5,755141	5,313195	0,9077436	0,9105474	-0,2150313	0,1777778	0,1708226	0,1890336	0,1847329	0,166522	63	65	64	63
-0,2601835	0,4032211	0,311029	35,58509	5,761848	4,885515	-0,478179	0,7415013	-4,713561	0,1777778	0,2174984	0,2323284	0,1380572	0,1232272	67	68	61	59
-0,2603025	0,4033991	0,3108573	35,5193	5,672696	4,412279	-1,980144	0,2665267	-9,172138	0,1777778	0,2668339	0,2721644	0,08872167	0,08339114	71	71	57	56
-0,2599207	0,4036429	0,310533	35,43338	5,605721	4,051093	-2,548846	-0,3269142	-11,52167	0,1777778	0,2962636	0,2897253	0,05929199	0,06583028	73	73	54	55
-0,2595561	0,4040077	0,3101385	35,27127	5,652956	3,583149	-4,710104	-0,02763458	-16,77401	0,1777778	0,3457942	0,3452415	0,009761345	0,01031404	77	77	50	50
-0,2592123	0,4045941	0,3100016	35,347	5,602143	3,30567	-4,911634	-0,08192812	-19,89685	0,1822222	0,38201	0,3803714	0	0	80	80	50	50
-0,2587582	0,4048127	0,3094059	35,27884	5,473127	3,25916	-4,749999	-1,432265	-19,87848	0,1866667	0,3997741	0,3711288	0	0,002204536	81	79	50	50
-0,2591534	0,4052886	0,3093402	35,31358	5,884954	2,769895	-4,491294	1,834939	-21,80631	0,1911111	0,3908248	0,4275236	0	0	81	84	50	50
-0,258297	0,4050468	0,3096113	35,4836	5,555694	3,272549	-2,866167	-0,006603223	-16,76975	0,1866667	0,3544302	0,3542981	0,01890318	0,01903524	78	78	51	51
-0,2583484	0,4053004	0,3091236	35,36672	5,568116	3,529385	-2,057895	-1,780354	-13,27027	0,1866667	0,3371729	0,3015659	0,03616041	0,07176748	76	74	52	55
-0,2582605	0,405439	0,3092461	35,38672	5,488981	3,738934	-2,01292	-1,596954	-9,445549	0,1911111	0,3015361	0,2695971	0,08068609	0,1126252	74	71	56	59
-0,2581753	0,4057063	0,3092299	35,58654	5,454932	4,233454	0,008697438	-1,841494	-3,912355	0,1955556	0,253094	0,2162642	0,1380171	0,1748469	70	67	61	63
-0,2581849	0,4058116	0,3092707	35,73442	5,347379	4,691223	1,290731	-1,9519	1,673658	0,1955556	0,198338	0,1593	0,1927731	0,2318111	65	62	65	68
-0,258386	0,406244	0,309258	35,95981	5,241383	5,224615	3,15854	-2,18602	7,041116	0,2044444	0,1558935	0,1121731	0,2529954	0,2967158	62	58	70	73
-0,2583305	0,4066542	0,3092295	36,13462	5,212255	5,651821	5,180089	-2,644201	12,41201	0,2222222	0,1245442	0,07166015	0,3199003	0,3727843	59	55	75	79
-0,2583129	0,4069297	0,3092214	36,24195	5,238341	6,013826	5,369695	-2,18281	16,24891	0,2266667	0,08600569	0,04234949	0,3673277	0,4109839	56	53	79	82
-0,2584171	0,4070493	0,3093003	36,37205	5,127759	6,161302	6,55926	-2,072201	17,41282	0,2355556	0,08214936	0,04070535	0,3889618	0,4304058	56	53	81	84
-0,2585297	0,4073834	0,3092971	36,41549	5,003889	6,306836	6,611422	-5,286385	21,22161	0,24	0,0806478	0	0,3993522	0,5050799	56	50	81	90
-0,2582036	0,4080195	0,3091414	36,44361	4,898022	6,03321	5,760006	-3,946027	16,56393	0,2533333	0,1271543	0,04823372	0,3795124	0,4584329	60	53	80	86
-0,2581511	0,4091199	0,3089699	36,2823	5,364296	5,33146	5,493474	-1,222916	10,81242	0,2577778	0,1618827	0,1374244	0,3536729	0,3781312	62	60	78	80
-0,2581747	0,4087699	0,3088456	36,13776	5,106078	5,041037	4,506217	-2,297417	7,812601	0,2577778	0,2026259	0,1566776	0,3129296	0,358878	66	62	75	78
-0,2574818	0,409065	0,308531	35,86424	5,062702	4,240489	1,666188	-2,353379	0,04220925	0,2577778	0,2808895	0,2338219	0,2346661	0,2817337	72	68	68	72
-0,2569805	0,4094402	0,3082556	35,55645	5,248979	3,323111	-1,0678	-0,5903968	-8,208652	0,2577778	0,3457683	0,3339603	0,1697873	0,1815952	77	76	63	64
-0,2562545	0,4096976	0,3077551	35,22065	5,472419	2,3386	-4,434966	1,386214	-17,31605	0,2577778	0,4170761	0,4448004	0,09847941	0,07075513	83	85	57	55
-0,2560106	0,4100059	0,3072628	35,0584	5,606147	1,518538	-6,457316	2,363352	-24,79965	0,2577778	0,4821407	0,5294077	0,03341483	0	88	92	52	50
-0,2554371	0,4104251	0,3066371	34,66391	5,527616	0,760705	-9,46825	1,735648	-31,51867	0,2577778	0,555608	0,5903209	0	0	94	97	50	50
-0,2547091	0,4108988	0,3057004	34,48832	5,416797	0,4002999	-11,30237	1,73422	-34,56594	0,2577778	0,586095	0,6207794	0	0	96	99	50	50
-0,25434	0,4116471	0,3050742	34,54744	5,235474	0,2005127	-11,20825	1,38951	-36,63787	0,2577778	0,6102613	0,6380516	0	0	98	101	50	50
-0,2539599	0,4117395	0,3047867	34,88954	5,155669	0,4142677	-9,324376	1,545879	-33,71359	0,2577778	0,5794549	0,6103724	0	0	96	98	50	50
-0,2541326	0,4121853	0,3044048	35,29292	4,91422	0,9703725	-5,936313	-2,700449	-26,16647	0,2577778	0,546447	0,492438	0	0,02311758	93	89	50	51
-0,2539719	0,4127748	0,3042742	35,75673	4,773314	1,962681	-2,286181	-1,996581	-18,4701	0,2577778	0,4624446	0,422513	0,05311098	0,0930426	86	83	54	57
-0,254133	0,4129752	0,3043467	36,23891	4,658998	3,31125	2,247982	-2,422217	-5,575423	0,2577778	0,3377542	0,2893098	0,1778014	0,2262457	77	73	64	68
-0,2544523	0,4135561	0,3047552	36,86294	4,467648	4,684181	7,838913	-4,687977	8,166406	0,2577778	0,2229935	0,129234	0,2925621	0,3863216	67	60	73	80
-0,2548022	0,4140058	0,3052825	37,34187	4,270488	6,157947	12,72734	-7,211572	22,91604	0,2577778	0,1007331	0	0,4148225	0,5590539	58	50	83	94
-0,2553929	0,4146627	0,3062514	37,82685	4,175527	7,440686	16,6107	-8,583704	35,53282	0,2577778	0	0	0,5272689	0,698943	50	50	92	105
-0,256056	0,4149955	0,3066132	37,9488	4,10705	8,41921	19,70927	-8,523377	45,95094	0,2577778	0	0	0,6320534	0,802521	50	50	100	114
-0,256337	0,4155592	0,3072698	38,09195	3,961643	8,948837	21,62176	-8,730903	51,29113	0,2577778	0	0	0,68338	0,8579981	50	50	104	118
-0,2570083	0,4161074	0,3079678	37,99868	4,008121	8,935799	20,70738	-7,364104	52,41161	0,2577778	0	0	0,7082528	0,8555349	50	50	106	118
-0,2570763	0,4164318	0,308604	37,83825	4,169291	8,40058	17,69221	-5,918255	47,91778	0,2577778	0	0	0,6777731	0,7961381	50	50	104	113
-0,2571802	0,4170144	0,3089627	37,38588	4,25796	7,087648	12,55778	-3,937555	36,70358	0,2577778	0	0	0,585438	0,6641892	50	50	96	103
-0,2566359	0,4176208	0,3087598	36,74288	4,625752	5,272304	5,916882	-0,8853648	19,8577	0,2577778	0,06805441	0,05034712	0,4475012	0,4652084	55	54	85	87
-0,2560179	0,41869	0,3082605	35,95641	4,969597	2,776711	-1,695004	1,863589	-3,20723	0,2577778	0,2712142	0,308486	0,2443414	0,2070696	71	74	69	66
-0,2548318	0,4200085	0,3071759	35,00677	5,174225	-0,3104934	-11,137	4,239455	-29,96799	0,2577778	0,5150631	0,5998522	0,000492457	0	91	97	50	50
-0,2532592	0,4216095	0,3057393	33,87525	5,247473	-3,446647	-20,79971	5,861896	-57,62745	0,2577778	0,7754333	0,8926712	0	0	112	121	50	50
-0,2514729	0,4234591	0,3041021	32,86171	5,056291	-6,406184	-29,79081	5,284571	-83,08105	0,2577778	1	1	0	0	130	130	50	50
-0,2499867	0,425227	0,3022543	31,87891	4,959599	-8,903688	-36,41923	5,115284	-103,9372	0,2577778	1	1	0	0	130	130	50	50
-0,2483506	0,4266909	0,3004554	31,25975	4,658612	-10,40117	-40,9931	4,181804	-116,0998	0,2577778	1	1	0	0	130	130	50	50
-0,2467742	0,4274918	0,2991612	31,09449	4,420206	-10,88388	-41,42505	2,472502	-118,9178	0,2577778	1	1	0	0	130	130	50	50
-0,2455774	0,4275881	0,298413	31,60386	4,136331	-10,35423	-37,40626	-0,1977595	-112,5286	0,2577778	1	1	0	0	130	130	50	50
-0,2452051	0,4280144	0,2982937	31,98655	4,363703	-10,01827	-32,39592	0,6344589	-102,6353	0,2577778	1	1	0	0	130	130	50	50
-0,2447768	0,4275392	0,2986626	33,19222	4,488856	-8,331514	-21,30392	-0,8213754	-81,62275	0,2577778	1	1	0	0	130	130	50	50
-0,2439696	0,4263094	0,2989706	34,4608	4,348545	-5,492767	-8,973639	-3,726307	-49,61677	0,2577778	0,7912085	0,7166824	0	0	113	107	50	50
-0,2442801	0,4250994	0,3003302	35,72036	4,753704	-2,189598	4,281524	-2,523126	-11,2746	0,2577778	0,3957551	0,3452926	0,1198005	0,170263	81	77	59	63
-0,2448006	0,4242023	0,3019346	36,93137	5,030077	1,892255	18,33669	-1,304375	32,03335	0,2577778	0	0	0,5650675	0,5911551	50	50	95	97
-0,2454678	0,4234251	0,3036913	38,21688	4,99474	6,232408	32,13099	-0,3693061	75,8314	0,2577778	0	0	1	1	50	50	130	130
-0,2473125	0,4227714	0,3060025	39,41616	4,604488	10,73627	45,2234	-2,130666	117,8395	0,2577778	0	0	1	1	50	50	130	130
-0,24959	0,4223517	0,3082173	40,57344	3,9156	14,69661	55,882	-4,458067	150,5864	0,2577778	0	0	1	1	50	50	130	130
-0,2515083	0,4228622	0,3102976	41,6488	3,015113	17,74512	63,3257	-8,430541	171,7737	0,2577778	0	0	1	1	50	50	130	130
-0,253984	0,4236445	0,3123129	42,39095	2,328977	19,42637	64,7224	-10,8441	178,6833	0,2577778	0	0	1	1	50	50	130	130
-0,2557964	0,4240892	0,314183	42,90845	1,863453	20,24749	65,53123	-15,00147	181,5942	0,2577778	0	0	1	1	50	50	130	130
-0,2577809	0,4244472	0,3160053	42,84881	1,721983	19,75233	57,93945	-16,60121	168,5027	0,2577778	0	0	1	1	50	50	130	130
-0,2590252	0,4251806	0,3171541	42,10313	1,937976	18,43459	45,85391	-14,46338	143,5638	0,2577778	0	0	1	1	50	50	130	130
-0,2594991	0,425923	0,3184484	41,01797	2,531536	16,07863	31,7856	-13,33298	109,6092	0,2577778	0	0	1	1	50	50	130	130
-0,2595421	0,426683	0,3189728	39,47625	3,597311	12,42913	15,26923	-8,596579	63,22114	0,2533333	0	0	0,7995789	0,9715105	50	50	113	127
-0,2590241	0,4277183	0,3195798	37,86685	4,507954	7,706519	-2,100169	-2,920707	8,84465	0,2488889	0,1896495	0,1312353	0,3081283	0,3665425	65	60	74	79
-0,2578942	0,4291235	0,319332	36,01323	5,650147	1,802403	-20,41757	6,273942	-53,60309	0,2488889	0,7221804	0,8476592	0	0	107	117	50	50
-0,2551683	0,4309026	0,3181071	34,02893	6,375732	-4,785538	-39,26694	14,76077	-116,8927	0,2488889	1	1	0	0	130	130	50	50
-0,252331	0,4330477	0,31653	31,88583	6,931671	-11,63254	-58,57767	23,4993	-176,2656	0,2488889	1	1	0	0	130	130	50	50
-0,2480125	0,4346765	0,3137768	29,75734	6,633265	-17,4543	-75,80151	25,82568	-221,2836	0,2488889	1	1	0	0	130	130	50	50
-0,2438696	0,4355924	0,3110642	27,83099	5,911997	-21,79094	-90,46455	24,29122	-252,23	0,2444444	1	1	0	0	130	130	50	50
-0,2396177	0,4356556	0,3082911	26,59735	5,42622	-24,68819	-97,5086	22,22538	-266,6426	0,2444444	1	1	0	0	130	130	50	50
-0,2361761	0,4348873	0,306385	26,2022	5,01187	-25,56007	-95,40542	18,44333	-263,9674	0,2488889	1	1	0	0	130	130	50	50
-0,2335356	0,4330625	0,3052601	26,915	5,126284	-24,50875	-84,61763	15,56846	-243,5238	0,2488889	1	1	0	0	130	130	50	50
-0,2321585	0,4304147	0,3058645	28,69522	5,668033	-22,15155	-64,686	12,42431	-207,4837	0,2444444	1	1	0	0	130	130	50	50
-0,2309216	0,426832	0,3070405	31,21086	6,823837	-17,96444	-39,93586	13,89527	-154,0255	0,2488889	1	1	0	0	130	130	50	50
-0,2310866	0,4227067	0,3095823	33,89925	8,0422	-12,28302	-12,68383	14,35229	-84,51239	0,2311111	0,9327121	1	0	0	124	130	50	50
-0,2309543	0,4175685	0,3123696	36,74527	8,897007	-5,291595	16,29798	15,12762	-3,036341	0,2044444	0,08353165	0,386084	0,3253572	0,02280483	56	80	76	51
-0,2318264	0,4126227	0,3156192	39,35109	9,265528	2,062093	44,79144	14,00311	82,16762	0,1822222	0	0	1	0,8638672	50	50	130	119
-0,2331647	0,4077213	0,3190904	41,72288	9,150006	9,237803	71,79309	15,10042	160,1523	0,16	0	0	1	1	50	50	130	130
-0,2351416	0,4031856	0,3220552	43,67739	8,719629	15,82305	95,07818	16,84576	225,6835	0,1066667	0	0	1	1	50	50	130	130
-0,2369499	0,3993923	0,325033	45,34126	7,744057	21,0521	112,4632	13,90699	274,4412	0	0	0	1	1	0	0	0	0
-0,2385914	0,3971788	0,3271812	46,23988	7,143077	23,98193	120,2258	12,78722	297,2514	0	0	0	1	1	0	0	0	0
-0,2394937	0,3961908	0,3288401	46,48885	6,907373	24,18859	117,4428	10,68651	292,1835	0	0	0	1	1	0	0	0	0
-0,2396452	0,3963404	0,328925	45,58293	7,588573	21,5908	101,326	11,52322	262,4536	0	0	0	1	1	0	0	0	0
-0,2384657	0,3974381	0,3283488	43,61297	8,862718	16,72787	74,41252	12,23326	208,1535	0	0	0	1	1	0	0	0	0
-0,2363248	0,399078	0,3270979	40,93398	10,21152	10,31952	42,20827	13,01592	135,615	0	0	0	1	1	0	0	0	0
-0,2334185	0,4004713	0,32492	37,65075	11,48655	3,22613	5,432866	15,5372	51,10625	0	0	0	0,6664345	0,3556905	0	0	0	0
-0,2301979	0,4013059	0,3229333	34,96515	12,05996	-3,667561	-26,31559	16,76657	-34,37786	0	0,1761129	0,5114443	0	0	0	0	0	0
-0,2280335	0,4006062	0,321567	33,80217	11,97303	-6,437339	-47,52415	16,9381	-94,05067	0	0,7711257	1	0	0	0	0	0	0
-0,2246624	0,3995378	0,3194169	32,25085	12,28074	-11,02997	-68,55908	21,36662	-161,1178	0	1	1	0	0	0	0	0	0
-0,2225416	0,396475	0,3183477	31,85671	12,2167	-13,62419	-80,90714	26,83581	-208,0574	0	1	1	0	0	0	0	0	0
-0,2219215	0,3930697	0,3181572	32,15998	12,63611	-14,2288	-84,4792	32,95814	-229,2639	0	1	1	0	0	0	0	0	0
-0,222031	0,3883801	0,3185953	33,2056	13,20854	-13,31744	-79,69933	37,80691	-225,0358	0	1	1	0	0	0	0	0	0
-0,2236128	0,3833016	0,3197007	34,48705	13,8894	-10,4333	-66,57519	37,80489	-192,1442	0	1	1	0	0	0	0	0	0
-0,2261148	0,3772285	0,3212825	35,77581	14,31774	-6,640721	-47,02286	32,73009	-140,2113	0	1	1	0	0	0	0	0	0
-0,2292613	0,371945	0,3233474	36,96152	14,92901	-2,914807	-23,8347	28,30483	-79,40583	0	0,5110099	1	0	0	0	0	0	0
-0,2318964	0,3662664	0,3252171	38,07351	15,15676	0,3849959	2,536579	22,02126	-17,04677	0	0	0,3906803	0,04974489	0	0	0	0	0
-0,2339705	0,3613839	0,3264102	38,73059	15,35633	2,542238	22,59263	19,7782	37,25872	0	0	0	0,5703692	0,1748053	0	0	0	0
-0,235119	0,3562399	0,3268389	39,15814	15,11105	4,184463	32,13577	18,8281	63,73068	0	0	0	0,8255879	0,4490258	0	0	0	0
-0,2359813	0,3526208	0,3271118	39,45213	15,07237	4,639378	43,20761	16,74973	94,01591	0	0	0	1	0,7726619	0	0	0	0
-0,236407	0,3491771	0,326849	39,37299	15,29984	4,456583	45,09761	18,49878	108,4844	0	0	0	1	0,8998566	0	0	0	0
-0,2366339	0,3467202	0,3264422	39,07272	15,49541	3,867333	41,47635	17,15573	108,5766	0	0	0	1	0,9142085	0	0	0	0
-0,2366384	0,3451299	0,325789	38,55932	15,7741	2,977408	32,12227	15,39335	97,76892	0	0	0	1	0,8237557	0	0	0	0
-0,2361026	0,343859	0,3249099	38,19468	15,60616	2,456414	22,24574	10,3005	77,33813	0	0	0	0,8763863	0,6703762	0	0	0	0
-0,2354416	0,3431715	0,3236178	37,87528	15,43867	1,736333	12,59676	6,725548	50,26222	0	0	0	0,5698777	0,4353667	0	0	0	0
-0,2347035	0,342559	0,3224937	37,88036	15,64734	1,463862	5,513043	4,309979	26,27196	0	0	0	0,3058194	0,2196198	0	0	0	0
-0,2340958	0,342328	0,3212678	38,05114	15,5766	1,376739	-0,1342388	2,519028	5,950444	0	0	0	0,08469472	0,03431415	0	0	0	0
-0,2332267	0,3424139	0,3200692	38,27293	15,39993	1,378785	-2,745936	0,2615829	-6,980709	0	0,06719125	0,07242291	0	0	0	0	0	0
-0,2322586	0,3428891	0,318759	38,47376	15,30912	1,348565	-4,106292	1,188392	-17,01535	0	0,1582696	0,1820374	0	0	0	0	0	0
-0,2312802	0,3436639	0,3176765	38,65254	15,00477	1,620339	-4,79756	-0,4055949	-18,1142	0	0,1851979	0,177086	0	0	0	0	0	0
-0,2306053	0,3450121	0,3167745	38,75011	14,32653	1,64799	-3,73729	-5,839811	-16,85152	0	0,2269133	0,1101171	0	0	0	0	0	0
-0,2298597	0,3456687	0,3158539	38,95332	14,38663	2,191353	-0,7163987	-6,65262	-10,05586	0	0,1670848	0,03403239	0	0	0	0	0	0
-0,2290349	0,347112	0,3147441	39,14092	14,25334	2,327303	3,489617	-9,124562	-3,90062	0	0,1302518	0	0	0,05223942	0	0	0	0
-0,2282786	0,3485489	0,3139325	39,19592	13,91543	2,47658	6,007427	-10,14431	0,1209908	0	0,1002332	0	0	0,102653	0	0	0	0
-0,228118	0,3500183	0,3132696	39,20958	13,70294	2,769016	8,005814	-10,41437	6,196089	0	0,04218284	0	0	0,1661046	0	0	0	0
-0,2279368	0,3521437	0,3127558	39,36196	13,71256	2,87414	8,889593	-11,60865	8,461655	0	0,03146998	0	0	0,2007031	0	0	0	0
-0,2274731	0,3538636	0,3115178	39,60661	13,69587	3,007515	9,332776	-11,28436	9,784638	0	0,01499718	0	0	0,2106899	0	0	0	0
-0,2270462	0,3552822	0,3108945	39,48206	13,05812	3,195439	7,254762	-14,05085	10,8999	0	0,0315094	0	0	0,2495075	0	0	0	0
-0,2268889	0,3569175	0,3099797	39,51289	12,83998	3,316097	6,234775	-14,81478	11,80517	0	0,03009614	0	0	0,2661995	0	0	0	0
-0,2269413	0,3586403	0,3090535	39,81094	12,79711	3,253751	6,950396	-13,24592	9,800454	0	0,03445461	0	0	0,2304637	0	0	0	0
-0,2271442	0,3601046	0,3086257	39,76157	12,56226	3,385001	6,068721	-10,58562	10,42205	0	0,001635753	0	0	0,2100767	0	0	0	0
-0,2271422	0,3617412	0,308055	39,81094	12,30546	3,522743	5,145734	-12,48702	7,988325	0	0,04498699	0	0	0,2047535	0	0	0	0
-0,2271459	0,3626425	0,3074245	39,80599	12,24757	3,618537	3,99041	-12,0346	7,747387	0	0,04287213	0	0	0,1978199	0	0	0	0
-0,2277449	0,3635169	0,3066833	39,55707	12,01331	3,68867	2,166935	-11,41271	7,272527	0	0,04140185	0	0	0,1868524	0	0	0	0
-0,2282227	0,3650564	0,3070377	39,63383	11,79737	3,531537	2,545505	-11,43336	4,575113	0	0,0685825	0	0	0,1600848	0	0	0	0
-0,2284541	0,3653733	0,3069748	39,56912	11,83139	3,678879	1,242963	-11,28701	4,828422	0	0,06458589	0	0	0,1611543	0	0	0	0
-0,2286626	0,3661062	0,3071081	39,43377	11,71999	3,545712	-1,037016	-11,85528	3,229175	0	0,08626102	0	0	0,1508445	0	0	0	0
-0,2293261	0,3668247	0,3073201	39,44564	12,02244	3,594481	-0,2185587	-6,214089	2,394247	0	0,03819843	0	0	0,08608336	0	0	0	0
-0,2295371	0,3668435	0,3075067	39,49601	12,0939	3,439203	-0,101257	-4,476485	0,7386303	0	0,03737855	0	0	0,05215115	0	0	0	0
-0,2294236	0,3672569	0,3078657	39,51447	11,90138	3,674679	-1,778797	-5,37437	2,52556	0	0,02848809	0	0	0,0789993	0	0	0	0
-0,2299849	0,3670307	0,3081235	39,42261	11,84995	3,751225	-2,033726	-4,273856	2,197339	0	0,02076518	0	0	0,06471194	0	0	0	0
-0,2304093	0,3675248	0,3082569	39,4396	11,85427	3,776321	-2,228046	-2,7071	1,521465	0	0,01185636	0	0	0,04228565	0	0	0	0
-0,2308367	0,3674319	0,3087821	39,30613	11,8299	3,771819	-2,999147	-2,505977	0,9196912	0	0,01586286	0	0	0,03425668	0	0	0	0
-0,2313734	0,3680281	0,3093176	39,29452	12,04115	3,516665	-1,575299	0,1670147	-1,032028	0	0,00865013	0,01199042	0	0	0	0	0	0
-0,232094	0,3678261	0,3090376	39,22179	11,83722	3,854601	-2,472239	0,2390894	1,938384	0	0	0	0,02177473	0,01699294	0	0	0	0
-0,2329964	0,3678673	0,3090305	39,21546	11,73423	4,070009	-2,121982	-0,5829324	2,346775	0	0	0	0,01763843	0,02929708	0	0	0	0
-0,2335483	0,3680354	0,309374	39,20699	11,65601	4,069915	-1,3607	-0,3838857	3,145212	0	0	0	0,02761326	0,03529098	0	0	0	0
-0,2343197	0,3684012	0,3091873	39,21475	11,73137	3,973742	-1,385305	-1,746359	2,275563	0	0	0	0,005292039	0,04021922	0	0	0	0
-0,2347662	0,3685369	0,3089704	39,20095	11,75224	3,965741	-1,770352	-2,049959	3,159224	0	0	0	0,01109265	0,05209183	0	0	0	0
-0,2350496	0,3685159	0,3083808	39,23592	11,46437	4,277467	-1,671338	-2,622077	3,616724	0	0	0	0,009946467	0,062388	0	0	0	0
-0,2357657	0,3692859	0,3082296	39,28872	11,52606	4,119505	-0,8033279	-1,943312	2,209678	0	0	0	0,002663665	0,0415299	0	0	0	0
-0,2358091	0,3691856	0,3070778	39,24368	11,40785	4,501814	-1,175535	-2,678547	4,352952	0	0	0	0,01674405	0,07031499	0	0	0	0
-0,2362343	0,3695761	0,3062223	39,29504	11,24397	4,756658	-0,06658158	-3,515607	5,909021	0	0	0	0,02393414	0,09424628	0	0	0	0
-0,2370033	0,3705543	0,3051552	39,3616	11,48814	4,794646	0,4024422	-3,318019	7,66787	0	0	0	0,04349851	0,1098589	0	0	0	0
-0,2371369	0,3710504	0,3031132	39,52298	11,12727	5,276626	1,807133	-4,259706	8,532133	0	0	0	0,04272427	0,1279184	0	0	0	0
-0,2376299	0,3720822	0,3009968	39,52811	11,04718	5,694568	1,875889	-4,122303	9,747334	0	0	0	0,05625032	0,1386964	0	0	0	0
-0,2383747	0,3735989	0,2985791	39,60579	10,71065	5,957903	2,392817	-5,672116	11,32791	0	0	0	0,05655791	0,1700002	0	0	0	0
-0,2387704	0,374801	0,2948944	39,4897	10,36208	6,645967	1,649686	-8,215755	16,03332	0	0	0	0,07817567	0,2424908	0	0	0	0
-0,2394144	0,3757806	0,2916248	39,59579	9,770272	7,112763	2,369014	-11,89178	18,8821	0	0	0	0,06990316	0,3077387	0	0	0	0
-0,2398406	0,3763673	0,289552	39,64532	9,334617	7,453801	2,456401	-12,77848	19,05797	0	0	0	0,06279489	0,3183644	0	0	0	0
-0,2402113	0,3776862	0,2843989	39,5836	8,741947	7,921079	1,769276	-16,70466	22,8094	0	0	0	0,06104742	0,3951405	0	0	0	0
-0,2409475	0,3781731	0,2794205	39,61069	7,833829	8,676943	2,202091	-21,44407	25,05072	0	0	0	0,03606646	0,4649479	0	0	0	0
-0,2410174	0,37882	0,2740293	39,7809	7,197871	9,305057	2,915171	-24,27653	27,29034	0	0	0	0,03013805	0,5156686	0	0	0	0
-0,2409539	0,3787991	0,2683975	39,82458	6,412051	9,637462	2,777933	-30,45649	29,05684	0	0,01399651	0	0	0,5951333	0	0	0	0
-0,2407981	0,3782976	0,2622072	40,01192	5,797934	10,0638	2,933641	-31,97595	28,72299	0	0,03252965	0	0	0,6069894	0	0	0	0
-0,2404137	0,3771805	0,255988	40,18828	5,163018	10,17531	3,961044	-35,3049	26,88442	0	0,08420482	0	0	0,6218932	0	0	0	0
-0,2396311	0,3758135	0,2496247	40,32058	4,651459	10,17277	4,288756	-36,35509	25,28918	0	0,1106592	0	0	0,6164427	0	0	0	0
-0,2388986	0,3738544	0,2434813	40,49361	4,275864	9,929106	6,023426	-36,51722	19,69879	0	0,1681843	0	0	0,5621601	0	0	0	0
-0,2376513	0,3711738	0,2376178	40,6265	3,903038	9,720033	6,184261	-35,20334	15,64359	0	0,1955975	0	0	0,5084692	0	0	0	0
-0,2359679	0,3683836	0,2322222	40,6955	3,907831	9,34122	6,301082	-32,56065	11,32449	0	0,2123616	0	0	0,4388514	0	0	0	0
-0,2341869	0,3653073	0,2273958	40,66401	4,040703	8,937285	6,482447	-28,20741	6,097226	0	0,2211018	0	0	0,3430463	0	0	0	0
-0,2333935	0,3638572	0,2251458	40,66779	4,18746	8,582027	6,342578	-21,87817	-0,5694909	0	0,2244766	0	0	0,2130868	0	0	0	0
-0,2314476	0,3602867	0,2207524	40,6703	4,418819	7,779162	5,336392	-16,67428	-9,155347	0	0,2582962	0	0	0,07518929	0	0	0	0
-0,2293013	0,3561991	0,2170168	40,46575	4,249853	7,028831	3,84697	-12,97317	-15,65175	0	0,2862492	0,02678585	0	0	0	0	0	0
-0,2270935	0,3523452	0,2137063	40,48827	4,40646	6,346063	2,858088	-8,348829	-22,30638	0	0,3065521	0,1395755	0	0	0	0	0	0
-0,2239417	0,3482861	0,2107424	40,25352	4,708466	5,672059	0,3914559	-2,727305	-27,01947	0	0,2974678	0,2429217	0	0	0	0	0	0
-0,2211487	0,3440847	0,2088186	40,20716	5,233918	4,98701	-0,6805101	3,494747	-31,11453	0	0,2761978	0,3460928	0	0	0	0	0	0
-0,2177149	0,3396299	0,2074255	40,19702	5,923262	4,606454	-1,77953	9,884369	-31,93585	0	0,2205148	0,4182022	0	0	0	0	0	0
-0,2140448	0,3354566	0,2064358	40,36853	6,926558	4,411154	-1,54781	18,14108	-31,85321	0	0,1371213	0,4999429	0	0	0	0	0	0
-0,2101618	0,3314037	0,2056461	40,66788	8,018561	4,334733	-0,1657329	24,66433	-30,03887	0	0,05374536	0,547032	0	0	0	0	0	0
-0,2066807	0,3280384	0,2053145	41,04514	9,218464	4,10493	2,286777	31,0665	-28,99408	0	0	0,6006058	0,0207243	0	0	0	0	0
-0,2036539	0,3251522	0,2045936	41,82928	10,14199	4,387647	6,968935	35,72709	-25,16623	0	0	0,6089332	0,1056085	0	0	0	0	0
