X	Y	Z	Yaw	Pitch	Roll	Thrust	T1	T2	T3	T4	PWM1	PWM2	PWM3	PWM4	Vyaw	Vpitch	Vroll
-0,1511587	0,470381	0,00081932	-131,1583	2,943138	9,552392	0	0,4272254	0	0	0	0	0	0	0			
-0,1520946	0,471381	-0,00053241	-131,6955	3,131721	9,263527	0	0,4781222	0	0	0	0	0	0	0	-26,9	6,147	-21,77651515
-0,1532715	0,4727863	-0,002082817	-132,046	3,145989	8,833767	0	0,5071782	0	0	0	0	0	0	0	-15,28787879	4,416424242	-24,83318182
-0,1546133	0,4740278	-0,003838534	-132,2	3,277463	8,444032	0	0,4971469	0	0	0	0	0	0	0	-5,2	6,339636364	-25,05075758
-0,1562183	0,4754056	-0,005484934	-132,2176	3,355197	8,007092	0	0,461608	0	0	0	0	0	0	0	4,909090909	4,725060606	-23,90030303
-0,1582736	0,4769225	-0,007059342	-132,038	3,43339	7,655322	0	0,3947508	0	0	0	0	0	0	0	12,67272727	5,635636364	-24,21909091
-0,1607381	0,4785539	-0,00859275	-131,7994	3,541173	7,207862	0	0,3060767	0	0	0	0	0	0	0	13,98787879	7,242757576	-29,77827273
-0,1632124	0,4802339	-0,0101517	-131,5764	3,672401	6,672639	0	0,2131893	0	0	0	0	0	0	0	15,89090909	5,029181818	-35,90827273
-0,1660052	0,4821572	-0,01174685	-131,275	3,707136	6,022889	0	0,1452445	0	0	0	0	0	0	0	15,63030303	7,095030303	-32,39406061
-0,1689254	0,4841083	-0,01291499	-131,0606	3,906537	5,603635	0	0,0527178	0	0	0	0	0	0	0	11,00909091	12,77636364	-24,56660606
-0,1718252	0,4858552	-0,01397631	-130,9117	4,128756	5,212191	0	0	0	0,02959345	0	0	0	0	0	6,048484848	14,22175758	-21,9039697
-0,174813	0,4873596	-0,01474014	-130,861	4,375855	4,880804	0	0	0	0,1001438	0	0	0	0	0	1,760606061	15,1529697	-15,90606061
-0,1775289	0,488422	-0,01537624	-130,8536	4,628804	4,687291	0	0	0	0,1430893	0	0	0	0	0	-6,296969697	20,37075758	-10,4790303
-0,1803661	0,4889454	-0,0159143	-131,0688	5,04809	4,534996	0	0	0	0,135745	0	0	0	0	0	-16,07878788	29,51915152	-7,306545455
-0,1831096	0,4890195	-0,01608453	-131,3842	5,602936	4,446175	0	0	0	0,1000102	0	0	0	0	0	-22,53030303	28,21733333	-9,105878788
-0,1853957	0,4886316	-0,01601007	-131,8123	5,979262	4,234502	0	0	0	0,02709223	0	0	0	0	0	-28,18181818	17,48166667	-14,15127273
-0,1872244	0,4881617	-0,01556277	-132,3142	6,179831	3,979183	0	0,06176868	0	0	0	0	0	0	0	-28,56363636	-1,860121212	-20,17893939
-0,188297	0,4875519	-0,01472791	-132,7549	5,917878	3,568597	0	0,1414267	0	0	0	0	0	0	0	-24,71818182	-26,8560303	-23,98869697
-0,1890751	0,4866264	-0,01351602	-133,1299	5,293582	3,187556	0	0,2225826	0	0	0	0	0	0	0	-15,06363636	-47,07172727	-14,55533333
-0,1890163	0,4851657	-0,01247227	-133,252	4,364511	3,088271	0	0,2629701	0	0	0	0	0	0	0	-13,08787879	-43,78121212	-12,04166667
-0,1895625	0,4835627	-0,01029827	-133,5618	3,848802	2,790181	0	0,3180115	0	0	0	0	0	0	0	-9,954545455	-26,42760606	-12,26654545
-0,1898499	0,481427	-0,008345962	-133,5805	3,4924	2,683475	0	0,3263336	0	0	0	0	0	0	0	4,133333333	-15,93257576	-2,111818182
-0,1901177	0,4790715	-0,006303266	-133,4254	3,323027	2,720491	0	0,3086145	0	0	0	0	0	0	0	13,57878788	-2,849090909	0,596090909
-0,1902577	0,4764419	-0,004192898	-133,1324	3,39838	2,703146	0	0,2476387	0	0	0	0	0	0	0	22,90909091	5,894212121	2,857484848
-0,1901358	0,4737973	-0,001961606	-132,6694	3,517536	2,814788	0	0,1542294	0	0	0	0	0	0	0	32,19090909	7,136454545	5,096454545
-0,1900441	0,47136	0,000462837	-132,0701	3,633883	2,871329	0	0,03093377	0	0	0	0	0	0	0	38,91818182	-0,145090909	3,039969697
-0,1897398	0,469161	0,00286268	-131,3851	3,512748	2,915107	0	0	0	0,1114854	0	0	0	0	0	41,53636364	-5,309333333	-2,062121212
-0,1892064	0,467411	0,005398384	-130,6994	3,458675	2,803279	0	0	0	0,2466646	0	0	0	0	0	39,63636364	-1,465636364	-7,865272727
-0,1881072	0,4656552	0,008108906	-130,0771	3,464382	2,655553	0	0	0	0,3663329	0	0	0	0	0	36,23939394	3,266090909	-12,85036364
-0,1865956	0,4642381	0,01105353	-129,5035	3,566456	2,379217	0	0	0	0,4498142	0	0	0	0	0	25,06969697	4,823909091	-14,05466667
-0,1857361	0,4636001	0,01261631	-129,2498	3,623571	2,191749	0	0	0	0,5174386	0	0	0	0	0	21,44242424	5,822393939	-18,29269697
-0,1835559	0,4625119	0,0158323	-128,7959	3,758595	1,775558	0	0	0	0,5741499	0	0	0	0	0	24,1	1,419909091	-27,87054545
-0,1811249	0,4617902	0,019232	-128,4545	3,670428	1,272021	0	0	0	0,5965015	0	0	0	0	0	15,45151515	-9,185575758	-32,13567879
-0,1783902	0,4612759	0,02297574	-128,286	3,455471	0,7150806	0	0	0	0,5815675	0	0	0	0	0	5,278787879	-14,35827273	-37,77014515
-0,1755588	0,4610187	0,0269517	-128,2803	3,196605	0,02560621	0	0	0	0,5266927	0	0	0	0	0	-6,184848485	-15,21393939	-44,54504242
-0,1724484	0,4612252	0,03106411	-128,4901	2,953411	-0,7549058	0	0	0	0,4295939	0	0	0	0	0	-19,7969697	-14,78321212	-50,29488515
-0,1689182	0,4615327	0,03530951	-128,9336	2,708759	-1,634125	0	0	0	0,2941822	0	0	0	0	0	-19,66666667	-22,8390303	-50,26021818
-0,1649405	0,4619739	0,03878614	-129,1391	2,199723	-2,413493	0	0	0	0,1872396	0	0	0	0	0	-29,58181818	-25,28827273	-47,27439394
-0,1610672	0,4626404	0,04315124	-129,9098	1,874246	-3,19418	0	0	0	0,02007747	0	0	0	0	0	-43,75757576	-23,04657576	-41,58975758
-0,1570291	0,4635031	0,04755393	-130,5831	1,439186	-3,785955	0	0,1295432	0	0	0	0	0	0	0	-40,64848485	-30,96487576	-24,83345455
-0,1528068	0,464818	0,05184765	-131,2512	0,8524051	-4,013684	0	0,2401735	0	0	0	0	0	0	0	-39,14545455	-38,20413636	-4,300969697
-0,1485242	0,4664777	0,05592992	-131,8749	0,1784495	-3,927887	0	0,3694878	0	0	0	0	0	0	0	-36,23939394	-37,24856364	18,10921212
-0,1441527	0,4682093	0,05984391	-132,4471	-0,3767975	-3,41608	0	0,4791165	0	0	0	0	0	0	0	-31,89090909	-33,42120606	34,7290303
-0,1400341	0,4701894	0,06320748	-132,9273	-0,9244503	-2,781829	0	0,5569544	0	0	0	0	0	0	0	-29,87575758	-31,93386364	41,10233333
-0,1362284	0,4725533	0,0658338	-133,433	-1,430615	-2,059703	0	0,618324	0	0	0	0	0	0	0	-31,96666667	-17,91074848	47,52054545
-0,1325355	0,4747978	0,06832452	-133,9822	-1,515505	-1,213651	0	0,6590465	0	0	0	0	0	0	0	-34,30909091	-5,361121212	44,80653636
-0,1286663	0,4774125	0,07063583	-134,5652	-1,607532	-0,5810873	0	0,675786	0	0	0	0	0	0	0	-35,81818182	-4,138878788	32,5274
-0,1247467	0,4801832	0,07263085	-135,1642	-1,652088	-0,1402468	0	0,7230198	0	0	0	0	0	0	0	-34,28181818	-2,026090909	22,9342
-0,1212475	0,4827486	0,07451127	-135,6965	-1,674393	0,1757413	0	0,6944023	0	0	0	0	0	0	0	-30,01818182	1,148151515	12,4188697
-0,11783	0,4850339	0,07592772	-136,1548	-1,614199	0,2695759	0	0,6686047	0	0	0	0	0	0	0	-23,11818182	3,21869697	0,509890909
-0,1147779	0,4872036	0,0774201	-136,4594	-1,568176	0,1925677	0	0,6249835	0	0	0	0	0	0	0	-16,14242424	2,076333333	-12,83342727
-0,1118253	0,4891614	0,07873943	-136,6875	-1,54568	-0,1539272	0	0,5775043	0	0	0	0	0	0	0	-9,184848485	2,763575758	-25,7428303
-0,1090322	0,4908908	0,08010674	-136,7625	-1,476978	-0,6569457	0	0,5178396	0	0	0	0	0	0	0	1,227272727	7,29430303	-32,22805455
-0,106298	0,4926343	0,08139598	-136,647	-1,304968	-1,217453	0	0,4463608	0	0	0	0	0	0	0	12,52121212	10,94063636	-38,18367576
-0,1037319	0,4942662	0,08269019	-136,3493	-1,115937	-1,917007	0	0,3499541	0	0	0	0	0	0	0	22,26060606	15,61685758	-43,56784848
-0,1014012	0,4958978	0,08388653	-135,9124	-0,7896117	-2,655192	0	0,2316316	0	0	0	0	0	0	0	28,65454545	20,97237576	-43,19333333
-0,09929524	0,4977053	0,08494916	-135,4037	-0,4238486	-3,342387	0	0,1006199	0	0	0	0	0	0	0	31,53333333	22,55170303	-34,35981818
-0,09749686	0,4995945	0,08574862	-134,8718	-0,0454055	-3,789066	0	0	0	0,03509759	0	0	0	0	0	29,73333333	18,69338788	-25,53118182
-0,0959091	0,5017487	0,08644073	-134,4225	0,1930332	-4,184916	0	0	0	0,15288	0	0	0	0	0	19,38787879	13,96453939	-22,144
-0,09421939	0,5040143	0,08670092	-134,232	0,4154243	-4,519818	0	0	0	0,2307326	0	0	0	0	0	8,545454545	11,5653	-19,05142424
-0,09269704	0,5064584	0,08701103	-134,1405	0,5746881	-4,813613	0	0	0	0,2782758	0	0	0	0	0	1,654545455	7,324233333	-11,23309091
-0,0914566	0,5090774	0,08713097	-134,1774	0,657124	-4,89051	0	0	0	0,3012116	0	0	0	0	0	-4,172727273	-2,756566667	4,325
-0,09065024	0,5117333	0,08718394	-134,2782	0,4837214	-4,670888	0	0	0	0,2981134	0	0	0	0	0	-12,78787879	-9,334727273	13,98978788
-0,08970997	0,5142202	0,08687892	-134,5994	0,349078	-4,428847	0	0	0	0,2457142	0	0	0	0	0	-15,12424242	-6,65000303	15,50945455
-0,08958026	0,5155566	0,08682266	-134,7773	0,2642713	-4,159076	0	0	0	0,188644	0	0	0	0	0	-18,34848485	-3,613924242	22,55518182
-0,08907595	0,517899	0,08654552	-135,2049	0,2298185	-3,684526	0	0	0	0,08490584	0	0	0	0	0	-25,73333333	0,41250303	32,84660606
-0,08876887	0,5199357	0,08612105	-135,6265	0,2778839	-3,075138	0	0,0267425	0	0	0	0	0	0	0	-20,02424242	1,439393939	46,237
-0,08898374	0,5217933	0,08585835	-135,8657	0,2773185	-2,158705	0	0,1192765	0	0	0	0	0	0	0	-11,04848485	-1,427090909	51,84363636
-0,08940233	0,5229011	0,08526053	-135,9911	0,2307899	-1,364298	0	0,188232	0	0	0	0	0	0	0	-6,060606061	-4,711506061	41,3401697
-0,09004311	0,523573	0,08450527	-136,0657	0,1218388	-0,7944794	0	0,2200392	0	0	0	0	0	0	0	-2,106060606	-6,406106667	29,02857576
-0,09076651	0,5238523	0,08378054	-136,0606	0,01938838	-0,406355	0	0,230414	0	0	0	0	0	0	0	2,527272727	-4,009668485	21,49644
-0,09151167	0,5235813	0,08322266	-135,9823	-0,01048026	-0,08509688	0	0,2165932	0	0	0	0	0	0	0	6,242424242	1,206040606	18,63003636
-0,0922763	0,5228127	0,08298568	-135,8546	0,05918772	0,2084362	0	0,1891659	0	0	0	0	0	0	0	8,309090909	-1,468862424	15,41414182
-0,09282869	0,5219176	0,08320335	-135,7081	-0,05895272	0,4235698	0	0,1330405	0	0	0	0	0	0	0	6,281818182	-12,3458097	14,82534545
-0,09329909	0,5208232	0,08386804	-135,6473	-0,348224	0,6976726	0	0,104401	0	0	0	0	0	0	0	0,157575758	-19,25802667	14,02685758
-0,09366008	0,5196519	0,0848136	-135,7029	-0,6944676	0,8864561	0	0,05976368	0	0	0	0	0	0	0	-5,960606061	-18,7635697	9,724769697
-0,09425235	0,5184033	0,08587912	-135,844	-0,9674218	1,01859	0	0,02609431	0	0	0	0	0	0	0	-10,35151515	-15,59104242	6,616269697
-0,09483726	0,5170763	0,08684939	-136,0445	-1,208972	1,104793	0	0,02145076	0	0	0	0	0	0	0	-12,81212121	-11,93152121	2,294030303
-0,09557691	0,5157905	0,08784065	-136,2668	-1,361162	1,094293	0	0,03308892	0	0	0	0	0	0	0	-12,63636364	-10,3459697	-2,902363636
-0,09653237	0,5147641	0,08899853	-136,4615	-1,550389	1,009015	0	0,04749747	0	0	0	0	0	0	0	-9,321212121	-13,8180303	-7,685118182
-0,09736329	0,5138254	0,09002543	-136,5744	-1,817157	0,8406841	0	0,06165881	0	0	0	0	0	0	0	-4,527272727	-18,16233333	-11,99667576
-0,09846152	0,5131792	0,09105485	-136,6109	-2,149746	0,6131247	0	0,07543198	0	0	0	0	0	0	0	-2,342424242	-15,87884848	-19,05443333
-0,0996738	0,5126575	0,09197974	-136,6517	-2,341159	0,2118878	0	0,09565593	0	0	0	0	0	0	0	-2,703030303	-6,201333333	-26,85420606
-0,1004616	0,5122206	0,09264651	-136,7001	-2,35439	-0,2730641	0	0,1190495	0	0	0	0	0	0	0	3,36969697	0,349757576	-27,70023333
-0,1011346	0,5119351	0,09294429	-136,5405	-2,329617	-0,7022199	0	0,1071787	0	0	0	0	0	0	0	8,684848485	2,249818182	-23,04299697
-0,1018444	0,5117979	0,09337233	-136,4135	-2,280146	-1,033483	0	0,08526656	0	0	0	0	0	0	0	10,25151515	3,955515152	-19,21654848
-0,102138	0,5117396	0,0934839	-136,2022	-2,199085	-1,336366	0	0,04299125	0	0	0	0	0	0	0	10,54242424	6,395393939	-14,59978788
-0,1024864	0,5119143	0,09380799	-136,0656	-2,069098	-1,515276	0	0,002530514	0	0	0	0	0	0	0	12,77878788	9,320606061	-5,428121212
-0,102604	0,5122499	0,09358043	-135,7805	-1,891505	-1,515494	0	0	0	0,05836292	0	0	0	0	0	15,98181818	12,27945455	3,557060606
-0,1024877	0,5127029	0,09313264	-135,5382	-1,663876	-1,397893	0	0	0	0,1107914	0	0	0	0	0	11,53939394	12,67554545	10,5450303
-0,1022301	0,5132058	0,09244947	-135,3997	-1,473212	-1,167508	0	0	0	0,1409708	0	0	0	0	0	5,315151515	8,140272727	14,1162303
-0,1017583	0,5137167	0,09164691	-135,3628	-1,395247	-0,9320574	0	0	0	0,1497708	0	0	0	0	0	-1,063636364	1,542181818	16,53829091
-0,1011097	0,5143667	0,09084141	-135,4348	-1,42232	-0,6217444	0	0	0	0,1460336	0	0	0	0	0	-6,548484848	-3,515151515	22,96043636
-0,1001422	0,5148201	0,08990264	-135,5789	-1,511247	-0,174363	0	0	0	0,1345493	0	0	0	0	0	-7,145454545	-4,505727273	27,75293939
-0,09920023	0,5151599	0,08904183	-135,6706	-1,571009	0,2941026	0	0	0	0,1043827	0	0	0	0	0	-4,615151515	-1,982393939	27,70128485
-0,09820607	0,5153864	0,08815306	-135,7312	-1,576666	0,7397794	0	0	0	0,08186629	0	0	0	0	0	-0,587878788	-1,444181818	25,41531515
-0,09723406	0,5156599	0,08723505	-135,69	-1,618667	1,132808	0	0	0	0,06146839	0	0	0	0	0	4,248484848	-1,311636364	22,56680606
-0,09633727	0,5158052	0,08641301	-135,591	-1,61995	1,484484	0	0	0	0,05694569	0	0	0	0	0	7,43030303	0,569818182	20,26306061
-0,09542222	0,5157928	0,0856262	-135,4448	-1,599863	1,801489	0	0	0	0,04027946	0	0	0	0	0	6,818181818	0,43369697	13,07112121
-0,09499954	0,5157398	0,08529779	-135,366	-1,605638	1,915831	0	0	0	0,02067074	0	0	0	0	0	7,766666667	-0,839363636	9,098272727
-0,09408028	0,5156518	0,08467864	-135,1885	-1,627562	2,101732	0	0	0	0,02533443	0	0	0	0	0	8,748484848	-0,964787879	9,242515152
-0,09317461	0,5153886	0,08415704	-135,0773	-1,637476	2,220834	0	0	0	0,0342608	0	0	0	0	0	5,457575758	-3,107424242	5,697181818
-0,09221817	0,5151489	0,08373346	-135,0084	-1,730107	2,289739	0	0	0	0,05115957	0	0	0	0	0	2,727272727	-4,906636364	5,461727273
-0,09134215	0,5146731	0,08335333	-134,9873	-1,799395	2,401071	0	0	0	0,07099351	0	0	0	0	0	1,090909091	-7,29469697	7,073606061
-0,0906268	0,5141983	0,08303955	-134,9724	-1,970832	2,523168	0	0	0	0,08379073	0	0	0	0	0	-0,36969697	-9,189121212	8,721121212
-0,08992434	0,5136813	0,08280461	-134,9995	-2,102636	2,688868	0	0	0	0,08781355	0	0	0	0	0	-2,054545455	-11,349	7,765787879
-0,08927282	0,5131305	0,0825536	-135,0402	-2,345349	2,779439	0	0	0	0,0779808	0	0	0	0	0	-2,875757576	-12,90321212	4,128969697
-0,08867519	0,5126415	0,08234036	-135,0944	-2,528442	2,825124	0	0	0	0,05959339	0	0	0	0	0	-1,296969697	-10,52254545	1,10830303
-0,08826198	0,5121348	0,08213439	-135,083	-2,692593	2,816013	0	0	0	0,04342337	0	0	0	0	0	0,818181818	-5,024030303	-4,454787879
-0,08777101	0,5117774	0,08198813	-135,0674	-2,694235	2,678116	0	0	0	0,03582269	0	0	0	0	0	2,563636364	-1,635727273	-8,182242424
-0,08754207	0,51134	0,08178653	-134,9984	-2,746572	2,545999	0	0	0	0,02281856	0	0	0	0	0	4,136363636	-2,710515152	-8,396666667
-0,08742446	0,5109848	0,08154864	-134,9309	-2,783682	2,401026	0	0	0	0,01757443	0	0	0	0	0	3,327272727	-1,900393939	-11,04663636
-0,08730095	0,5107164	0,08127686	-134,8886	-2,809285	2,18146	0	0	0	0,01437741	0	0	0	0	0	2,803030303	0,454727273	-12,30427273
-0,08719921	0,5105872	0,08103929	-134,8384	-2,768676	1,994985	0	0	0	0,0178674	0	0	0	0	0	4,03030303	3,460545455	-11,53975758
-0,08704435	0,5105217	0,08077867	-134,7556	-2,695087	1,800648	0	0	0	0,02600642	0	0	0	0	0	4,851515152	2,406393939	-10,84048485
-0,08684366	0,5105553	0,08054638	-134,6783	-2,689265	1,637249	0	0	0	0,03854179	0	0	0	0	0	2,648484848	-0,7	-9,083121212
-0,08662882	0,5107483	0,08033998	-134,6682	-2,718187	1,500905	0	0	0	0,04463736	0	0	0	0	0	0,706060606	-0,586787879	-7,996
-0,08647104	0,5109472	0,08010186	-134,655	-2,708629	1,373381	0	0	0	0,05273061	0	0	0	0	0	2,3	3,373969697	-5,688484848
-0,08637314	0,5111734	0,0797276	-134,5923	-2,606846	1,313185	0	0	0	0,05888111	0	0	0	0	0	4,087878788	6,327060606	-2,45869697
-0,08625514	0,5114887	0,07918742	-134,5201	-2,499836	1,292244	0	0	0	0,06568346	0	0	0	0	0	4,096969697	5,564484848	-1,517030303
-0,08616602	0,5118709	0,07871403	-134,4571	-2,423218	1,263123	0	0	0	0,06495471	0	0	0	0	0	3,345454545	2,634848485	-1,036030303
-0,08605327	0,512325	0,07825533	-134,4097	-2,412886	1,258055	0	0	0	0,06253771	0	0	0	0	0	1,421212121	1,397666667	-0,200757576
-0,08590461	0,5127974	0,07777528	-134,4102	-2,377095	1,256498	0	0	0	0,05741443	0	0	0	0	0	0,263636364	3,833515152	1,089151515
-0,08576735	0,513212	0,07736516	-134,401	-2,28638	1,293997	0	0	0	0,05249074	0	0	0	0	0	0,418181818	6,156151515	2,816181818
-0,08563591	0,5135803	0,07692868	-134,3964	-2,173942	1,349432	0	0	0	0,04311027	0	0	0	0	0	0,63030303	7,355424242	3,369787879
-0,08549704	0,5139635	0,07651619	-134,3802	-2,043651	1,4052	0	0	0	0,03576958	0	0	0	0	0	1,390909091	7,370727273	3,599969697
-0,08536343	0,5143356	0,07613922	-134,3505	-1,930708	1,468231	0	0	0	0,03811699	0	0	0	0	0	3,348484848	5,238848485	4,020727273
-0,08524951	0,5147248	0,07585562	-134,2697	-1,870769	1,537884	0	0	0	0,04623587	0	0	0	0	0	4,209090909	2,515333333	3,162333333
-0,08521324	0,5150529	0,07562291	-134,2116	-1,847702	1,572588	0	0	0	0,04568289	0	0	0	0	0	2,1	1,909787879	0,326757576
-0,08518859	0,5153056	0,07545144	-134,2004	-1,807746	1,548667	0	0	0	0,03836418	0	0	0	0	0	0,193939394	2,438787879	-2,289939394
-0,08522193	0,5155168	0,07532979	-134,2052	-1,767222	1,49702	0	0	0	0,03023065	0	0	0	0	0	-0,987878788	2,320606061	-2,925212121
-0,08537001	0,5156595	0,07522174	-134,233	-1,731166	1,452135	0	0	0	0,02121089	0	0	0	0	0	-1,615151515	2,612181818	-2,914454545
-0,08554722	0,5157591	0,07512102	-134,2585	-1,68102	1,400843	0	0	0	0,01819882	0	0	0	0	0	-0,639393939	2,995363636	-3,644121212
-0,08569248	0,5158641	0,07504197	-134,2541	-1,632319	1,331879	0	0	0	0,01762203	0	0	0	0	0	1,654545455	2,766060606	-4,119393939
-0,08574808	0,5159388	0,07498016	-134,2039	-1,58974	1,264903	0	0	0	0,02310054	0	0	0	0	0	2,709090909	1,427575758	-2,748363636
-0,08577154	0,5159341	0,07496961	-134,1647	-1,585209	1,241183	0	0	0	0,02585994	0	0	0	0	0	4,009090909	-0,028	-1,01630303
-0,08577418	0,5158799	0,07494529	-134,0716	-1,590664	1,231365	0	0	0	0,03346795	0	0	0	0	0	5,103030303	-0,330060606	-0,49569697
-0,08573165	0,515742	0,07491899	-133,9963	-1,596101	1,224825	0	0	0	0,03280694	0	0	0	0	0	3,660606061	-0,356606061	-0,813363636
-0,08569469	0,5156181	0,07494623	-133,9508	-1,602432	1,204524	0	0	0	0,03129999	0	0	0	0	0	1,560606061	-0,487666667	-0,809636364
-0,08564021	0,5154949	0,07497317	-133,9448	-1,612194	1,198107	0	0	0	0,03066828	0	0	0	0	0	0,093939394	-1,235181818	0,271363636
-0,0855729	0,5153662	0,07504826	-133,9477	-1,643193	1,213479	0,01333333	0	0,01333333	0,04423232	0,01333333	0	0	0	0	-0,224242424	-1,915727273	0,887121212
-0,08558663	0,5152496	0,07514375	-133,9522	-1,675413	1,227382	0,03111111	0	0,03111111	0,06480428	0,03111111	50	52	55	52	-0,548484848	-2,447939394	-0,351545455
-0,08561921	0,5151567	0,07526634	-133,9658	-1,723975	1,201878	0,04	0,004874948	0,04	0,07512505	0,04	50	53	56	53	-0,603030303	-2,06869697	-2,744181818
-0,08567588	0,5151423	0,07536135	-133,9721	-1,74368	1,136824	0,04	0,006162178	0,04	0,07383782	0,04	50	53	55	53	0,009090909	-0,98169697	-4,285181818
-0,0857434	0,5152041	0,07546755	-133,9655	-1,756371	1,060467	0,04	0,01139715	0,04	0,06860285	0,04	50	53	55	53	0,884848485	-0,526939394	-5,337636364
-0,08579466	0,5152739	0,07554638	-133,9429	-1,761069	0,960682	0,05777778	0,03115796	0,05777778	0,0843976	0,05777778	52	54	56	54	1,73030303	0,572848485	-4,358275758
-0,08583963	0,5154002	0,0756059	-133,9084	-1,737467	0,9166439	0,09777778	0,0781837	0,09777778	0,1173719	0,09777778	56	57	59	57	2,627272727	1,718272727	-2,199009091
-0,08589615	0,5154861	0,07569305	-133,8562	-1,704366	0,8881147	0,1155556	0,09874651	0,1155556	0,1323646	0,1155556	57	59	60	59	2,557575758	2,078818182	-0,886133333
-0,08595533	0,5156249	0,07582469	-133,824	-1,668866	0,8874015	0,1244444	0,1092339	0,1244444	0,139655	0,1244444	58	59	61	59	1,290909091	1,628393939	0,059757576
-0,08599826	0,5157772	0,0759684	-133,8136	-1,650629	0,8900867	0,1244444	0,1086937	0,1244444	0,1401951	0,1244444	58	59	61	59	0,178787879	-0,601272727	-0,287133333
-0,08603483	0,5159132	0,0761303	-133,8181	-1,688708	0,8779261	0,1244444	0,1089007	0,1244444	0,1399882	0,1244444	58	59	61	59	-1,018181818	-2,536151515	-0,107993939
-0,08606469	0,5160251	0,07632431	-133,8472	-1,734322	0,8865229	0,1244444	0,1118468	0,1244444	0,1370421	0,1244444	58	59	60	59	-2,336363636	-1,883787879	1,012733333
-0,08610269	0,5160868	0,07646994	-133,8952	-1,750873	0,9113463	0,1288889	0,1204166	0,1288889	0,1373612	0,1288889	59	60	60	60	-2,624242424	0,570666667	1,454993939
-0,08609538	0,5160717	0,07647941	-133,9338	-1,71549	0,9345377	0,1333333	0,1287374	0,1333333	0,1379293	0,1333333	60	60	61	60	0,375757576	1,544	2,722172727
-0,0862819	0,5161361	0,07673363	-133,8828	-1,699921	1,001178	0,1333333	0,123409	0,1333333	0,1432576	0,1333333	59	60	61	60	3,490909091	0,043515152	3,376312121
-0,0864326	0,5161636	0,07679933	-133,8186	-1,714054	1,045956	0,1333333	0,1184176	0,1333333	0,1482491	0,1333333	59	60	61	60	7,742424242	-2,237515152	2,601484848
-0,08648363	0,5161775	0,07662277	-133,6273	-1,773759	1,087027	0,1377778	0,1040553	0,1377778	0,1715002	0,1377778	58	61	63	61	-2,536363636	-0,725666667	-1,451681818
-0,08663447	0,51626	0,07715803	-133,9023	-1,738001	0,9980505	0,1377778	0,1433094	0,1377778	0,1322462	0,1377778	61	61	60	61	-8,757575758	0,953212121	-3,805084848
-0,08685865	0,5160288	0,07736327	-133,9163	-1,742303	0,9614592	0,1377778	0,1488538	0,1377778	0,1267017	0,1377778	61	61	60	61	0,975757576	0,383454545	-2,793933333
-0,08682532	0,5160347	0,07767282	-133,8701	-1,725347	0,9058507	0,1333333	0,140121	0,1333333	0,1265456	0,1333333	61	60	60	60	-2,063636364	-3,906181818	-1,513436364
-0,08718253	0,5158986	0,07777597	-133,9844	-1,871207	0,9115158	0,1333333	0,1532826	0,1333333	0,113384	0,1333333	62	60	59	60	-5,839393939	-3,541909091	-1,091484848
-0,08738304	0,5157769	0,0779726	-134,0628	-1,84223	0,8698317	0,1377778	0,1636432	0,1377778	0,1119123	0,1377778	63	61	58	61	-6,793939394	8,387606061	13,14097576
-0,087567	0,5160352	0,07873477	-134,2086	-1,594416	1,345168	0,1422222	0,1798357	0,1422222	0,1046088	0,1422222	64	61	58	61	-5,148484848	-6,164151515	-1,483442424
-0,08753764	0,5156698	0,07820835	-134,2327	-2,045647	0,8208781	0,1422222	0,1780852	0,1422222	0,1063593	0,1422222	64	61	58	61	1,151515152	-13,55160606	-13,32699697
-0,08771744	0,5156211	0,07825873	-134,1706	-2,041619	0,9053771	0,1422222	0,1767522	0,1422222	0,1076923	0,1422222	64	61	58	61	0,727272727	0,812454545	-0,58999697
-0,0877172	0,5157563	0,07814458	-134,2087	-2,018836	0,8014082	0,1422222	0,1890385	0,1422222	0,09540591	0,1422222	65	61	57	61	-1,290909091	12,52236364	9,257481818
-0,08796458	0,5156345	0,0788241	-134,2132	-1,628381	1,210874	0,1733333	0,2436384	0,1733333	0,1030283	0,1733333	69	63	58	63	0,278787879	-2,869060606	-3,038845455
-0,08823953	0,5156372	0,07825799	-134,1995	-2,113515	0,7011263	0,1822222	0,2178838	0,1822222	0,1465607	0,1822222	67	64	61	64	5,736363636	-6,575909091	-10,92066364
-0,08820212	0,5156577	0,07842792	-134,0239	-1,845386	0,8504921	0,1866667	0,1995829	0,1866667	0,1737504	0,1866667	65	64	63	64	5,4	8,401818182	1,48440303
-0,08783725	0,5160353	0,07853591	-134,0213	-1,836255	0,7501116	0,1911111	0,2092568	0,1911111	0,1729654	0,1911111	66	65	63	65	-0,093939394	3,308272727	-4,579851515
-0,08794332	0,5162662	0,07856838	-134,027	-1,736213	0,699357	0,1955556	0,2006733	0,1955556	0,1904378	0,1955556	66	65	65	65	2,490909091	3,871909091	-1,683027273
-0,08786062	0,5166366	0,0786073	-133,9391	-1,708482	0,6945717	0,1955556	0,1807149	0,1955556	0,2103962	0,1955556	64	65	66	65	-3,048484848	15,77372727	11,86321212
-0,08849782	0,5170395	0,07954704	-134,1276	-1,21568	1,090843	0,1955556	0,185829	0,1955556	0,2052821	0,1955556	64	65	66	65	-6,693939394	12,92484848	11,7840697
-0,08817437	0,5176025	0,07948413	-134,16	-1,281962	1,083446	0,1955556	0,1868343	0,1955556	0,2042768	0,1955556	64	65	66	65	7,351515152	-7,338848485	-11,54738182
-0,08784594	0,5177096	0,07835571	-133,885	-1,457862	0,7097794	0,1955556	0,1612929	0,1955556	0,2298182	0,1955556	62	65	68	65	9,624242424	-5,495545455	-7,654554545
-0,08795313	0,5179707	0,07815462	-133,8424	-1,463315	0,8308457	0,1955556	0,1515993	0,1955556	0,2395118	0,1955556	62	65	69	65	3,206060606	6,060515152	6,082706061
-0,08788352	0,5182558	0,07820175	-133,7792	-1,257865	0,9105087	0,1955556	0,1434713	0,1955556	0,2476398	0,1955556	61	65	69	65	-3,015151515	3,078393939	2,888142424
-0,0878299	0,5184915	0,0777148	-133,9419	-1,361728	0,9261544	0,1955556	0,1646383	0,1955556	0,2264729	0,1955556	63	65	68	65	-5,354545455	-2,412121212	1,012769697
-0,08790093	0,5185055	0,07762924	-133,9559	-1,337465	0,9439301	0,1955556	0,1873872	0,1955556	0,2037239	0,1955556	64	65	66	65	-0,145454545	1,108909091	2,649563636
-0,08801373	0,5184888	0,07767288	-133,9467	-1,325134	1,01359	0,1955556	0,186598	0,1955556	0,2045131	0,1955556	64	65	66	65	2,303030303	0,065939394	2,956148485
-0,08809391	0,5183237	0,07769356	-133,8799	-1,335289	1,041483	0,1955556	0,1779006	0,1955556	0,2132106	0,1955556	64	65	67	65	6,309090909	11,47955758	13,88351515
-0,08837578	0,5182374	0,07868213	-133,7385	-0,9463086	1,471746	0,1955556	0,1714846	0,1955556	0,2196265	0,1955556	63	65	67	65	6,827272727	-2,532787879	-6,778693939
-0,08824441	0,5176786	0,07825312	-133,6546	-1,418871	0,8177861	0,1955556	0,138793	0,1955556	0,2523181	0,1955556	61	65	70	65	7,445454545	-19,21840606	-31,44240606
-0,08866582	0,5173417	0,07864729	-133,4928	-1,580516	0,4341466	0,1955556	0,1154855	0,1955556	0,2756256	0,1955556	59	65	72	65	11,01212121	-2,664909091	-21,80130758
-0,08869914	0,51696	0,07918511	-133,2912	-1,506813	0,09834295	0,2	0,1287373	0,2	0,2712627	0,2	60	66	71	66	9,272727273	-0,891090909	-17,14294848
-0,08909475	0,5165212	0,07977358	-133,1868	-1,609922	-0,1315707	0,2	0,1213326	0,2	0,2786674	0,2	59	66	72	66	8,036363636	1,454121212	-11,91450758
-0,08952837	0,516248	0,08037414	-133,026	-1,458827	-0,2948358	0,2044444	0,1140674	0,2044444	0,2948214	0,2044444	59	66	73	66	2,587878788	0,185909091	-13,52179697
-0,0894821	0,5158699	0,0803073	-133,1014	-1,603787	-0,57779	0,2044444	0,103592	0,2044444	0,3052969	0,2044444	58	66	74	66	-4,854545455	-10,37657576	-9,73239697
-0,08989211	0,5158793	0,0803684	-133,1862	-1,801254	-0,6160049	0,2044444	0,1120844	0,2044444	0,2968045	0,2044444	58	66	73	66	-8,809090909	-3,587939394	4,093924242
-0,08972859	0,5160783	0,08046008	-133,3921	-1,722189	-0,4426905	0,2044444	0,1378949	0,2044444	0,270994	0,2044444	61	66	71	66	-7,806060606	4,177545455	11,25923636
-0,0900913	0,5162492	0,08016952	-133,4438	-1,663395	-0,2444501	0,2044444	0,1521112	0,2044444	0,2567777	0,2044444	62	66	70	66	-1,3	-1,379666667	9,621345455
-0,0899248	0,5165647	0,07965941	-133,435	-1,767718	-0,1251861	0,2088889	0,172473	0,2088889	0,2453048	0,2088889	63	66	69	66	-0,318181818	3,568878788	19,90135152
-0,08972692	0,5167658	0,07937966	-133,4543	-1,545622	0,4122945	0,2088889	0,1848618	0,2088889	0,2329159	0,2088889	64	66	68	66	1,209090909	11,47433333	20,82772424
-0,08904456	0,5170373	0,07869966	-133,3951	-1,389065	0,5621288	0,2088889	0,1971683	0,2088889	0,2206094	0,2088889	65	66	67	66	2,724242424	4,853545455	9,210090909
-0,08893095	0,5170523	0,07846142	-133,3644	-1,385455	0,7162275	0,2088889	0,2176761	0,2088889	0,2001017	0,2088889	67	66	66	66	1,321212121	3,613818182	5,587551515
-0,08897834	0,5175128	0,07894735	-133,3515	-1,269809	0,746518	0,2133333	0,2330977	0,2133333	0,193569	0,2133333	68	67	65	67	5,915151515	-4,632848485	-8,122933333
-0,08869851	0,517226	0,07838707	-133,1692	-1,538339	0,4481707	0,2133333	0,2305086	0,2133333	0,1961581	0,2133333	68	67	65	67	7,672727273	-11,10860606	-16,79927576
-0,0886027	0,5170158	0,07838617	-133,0983	-1,636393	0,1921419	0,2133333	0,212958	0,2133333	0,2137087	0,2133333	67	67	67	67	2,981818182	-0,860363636	-11,99562242
-0,08861458	0,5169265	0,0785274	-133,0708	-1,566731	0,05231516	0,2133333	0,1994814	0,2133333	0,2271852	0,2133333	65	67	68	67	1,963636364	3,796181818	-9,028387879
-0,08877651	0,5167755	0,0785678	-133,0335	-1,511119	-0,1057949	0,2133333	0,1703	0,2133333	0,2563667	0,2133333	63	67	70	67	0,860606061	7,808181818	-3,286879091
-0,08890279	0,5165563	0,07892917	-133,0424	-1,309061	-0,05615185	0,2177778	0,1696046	0,2177778	0,2659509	0,2177778	63	67	71	67	-0,678787879	-2,328666667	-10,73906667
-0,08933913	0,5166205	0,07856059	-133,0559	-1,587965	-0,4601841	0,2222222	0,1767224	0,2222222	0,267722	0,2222222	64	67	71	67	-0,015151515	10,4045	0,120879394
-0,0889476	0,5166616	0,07896067	-133,0429	-0,9657125	-0,05216283	0,2222222	0,1728534	0,2222222	0,271591	0,2222222	63	67	71	67	3,203030303	12,35739394	6,910109091
-0,08920759	0,5170855	0,07903121	-132,9502	-1,180171	-0,2321505	0,2222222	0,1688343	0,2222222	0,2756102	0,2222222	63	67	72	67	-7,254545455	-17,76634848	-17,77901121
-0,08942214	0,5167532	0,07899412	-133,2823	-1,552002	-0,6388702	0,2222222	0,2123675	0,2222222	0,2320769	0,2222222	66	67	68	67	-3,336363636	-7,193818182	-6,795987879
-0,08915632	0,5169238	0,07880779	-133,0603	-1,417567	-0,4564181	0,2222222	0,1872675	0,2222222	0,257177	0,2222222	64	67	70	67	3,618181818	11,50290909	16,95091212
-0,08917277	0,5172088	0,07945213	-133,1629	-1,172406	-0,0794901	0,2222222	0,221466	0,2222222	0,2229784	0,2222222	67	67	67	67	-3,684848485	-7,192727273	-5,596787879
-0,0892927	0,5167244	0,07936467	-133,1819	-1,654927	-0,6411121	0,2222222	0,2322564	0,2222222	0,2121881	0,2222222	68	67	66	67	-2,190909091	-2,602181818	-4,314527273
-0,08945507	0,516703	0,07991536	-133,2352	-1,258278	-0,2218695	0,2222222	0,2419555	0,2222222	0,202489	0,2222222	69	67	66	67	-2,445454545	7,766333333	8,52439697
-0,08975334	0,5166878	0,08022082	-133,2626	-1,398638	-0,359807	0,2222222	0,2497173	0,2222222	0,1947272	0,2222222	69	67	65	67	-5,393939394	-13,27563636	-19,24487576
-0,09001048	0,5159279	0,08012194	-133,4132	-1,696374	-0,8569504	0,2222222	0,2667186	0,2222222	0,1777259	0,2222222	71	67	64	67	-3,721212121	-7,928151515	-14,29405455
-0,08996803	0,5157906	0,08038355	-133,3854	-1,660267	-0,8315108	0,2222222	0,2617693	0,2222222	0,1826752	0,2222222	70	67	64	67	1,627272727	2,980363636	0,685409091
-0,09017841	0,5154361	0,08055728	-133,3595	-1,598022	-0,8343319	0,2222222	0,2602092	0,2222222	0,1842352	0,2222222	70	67	64	67	1,73030303	0,957121212	3,248151515
-0,09050009	0,5152054	0,0807156	-133,3283	-1,628682	-0,7243218	0,2266667	0,2720383	0,2266667	0,1812951	0,2266667	71	68	64	68	-0,260606061	8,801939394	14,87350303
-0,09082856	0,5147651	0,08105143	-133,3681	-1,307558	-0,3435063	0,2222222	0,2325219	0,2222222	0,2119226	0,2222222	68	67	66	67	-1,224242424	1,414878788	0,427181818
-0,09075439	0,5148599	0,08060908	-133,3687	-1,581991	-0,7102248	0,2222222	0,2592387	0,2222222	0,1852057	0,2222222	70	67	64	67	-0,127272727	-10,23954545	-8,519333333
-0,09088129	0,5148833	0,0802346	-133,3723	-1,645463	-0,6246443	0,2222222	0,2473516	0,2222222	0,1970929	0,2222222	69	67	65	67	-3,721212121	2,859151515	11,00179091
-0,09091675	0,5147819	0,0802853	-133,4915	-1,487639	-0,3471657	0,2222222	0,2593687	0,2222222	0,1850757	0,2222222	70	67	64	67	-2,06969697	6,908545455	15,23959091
-0,090795	0,5149611	0,08013289	-133,4406	-1,417481	-0,1217378	0,2222222	0,24687	0,2222222	0,1975744	0,2222222	69	67	65	67	3,454545455	3,214484848	6,989733333
-0,09059371	0,5148761	0,08005971	-133,3775	-1,381561	-0,1165045	0,2222222	0,23601	0,2222222	0,2084344	0,2222222	68	67	66	67	-1,2	1,164181818	3,508940576
-0,09051432	0,5148579	0,07989953	-133,4802	-1,379063	-0,005942761	0,2222222	0,2302642	0,2222222	0,2141802	0,2222222	68	67	67	67	-2,206060606	-0,478272727	0,958968485
-0,09046034	0,5148248	0,07989509	-133,4503	-1,397344	-0,08485854	0,2222222	0,2300097	0,2222222	0,2144348	0,2222222	68	67	67	67	1,754545455	-0,314363636	-7,314643606
-0,09044301	0,5148642	0,07990871	-133,4223	-1,389437	-0,247326	0,2222222	0,2297588	0,2222222	0,2146856	0,2222222	68	67	67	67	4,072727273	9,310151515	-0,706568485
-0,0906103	0,5147435	0,08049781	-133,3159	-1,090109	-0,1081753	0,2222222	0,2207409	0,2222222	0,2237035	0,2222222	67	67	67	67	6,739393939	12,39900606	-1,675590909
-0,09095095	0,5145663	0,08058723	-133,1999	-0,9802698	-0,3026205	0,2222222	0,2020367	0,2222222	0,2424077	0,2222222	66	67	69	67	5,357575758	-6,501484848	-19,55538788
-0,09070768	0,5146375	0,07997672	-133,1391	-1,304658	-0,7535031	0,2266667	0,199113	0,2266667	0,2542203	0,2266667	65	68	70	68	2,039393939	-8,649369697	-21,19922727
-0,09072179	0,5145296	0,08010443	-133,1326	-1,265699	-1,002195	0,2266667	0,1979027	0,2266667	0,2554306	0,2266667	65	68	70	68	2,681818182	-4,709666667	-17,7073
-0,09052823	0,5145687	0,0796898	-133,0506	-1,460077	-1,337844	0,2222222	0,1693195	0,2222222	0,2751249	0,2222222	63	67	72	67	1,251515152	0,829757576	-3,195121212
-0,09072257	0,5143599	0,08006775	-133,0913	-1,238317	-1,107634	0,2222222	0,1803058	0,2222222	0,2641386	0,2222222	64	67	71	67	0,218181818	14,10360606	19,93894242
-0,09067203	0,5144262	0,08053563	-133,0434	-0,994658	-0,6798589	0,2222222	0,1821314	0,2222222	0,2623131	0,2222222	64	67	70	67	0,93030303	-1,598242424	3,203606061
-0,09065019	0,5142084	0,08004905	-133,0606	-1,291059	-1,001915	0,2222222	0,1718738	0,2222222	0,2725706	0,2222222	63	67	71	67	-2,090909091	-6,259212121	-4,911430303
-0,09048218	0,5140821	0,0801179	-133,1124	-1,201212	-0,8419361	0,2266667	0,1861162	0,2266667	0,2672171	0,2266667	64	68	71	68	-0,506060606	8,413333333	11,81079697
-0,09079283	0,514019	0,08069392	-133,0773	-1,013419	-0,6121587	0,2222222	0,1808222	0,2222222	0,2636223	0,2222222	64	67	71	67	-1,524242424	-4,793757576	-0,166890909
-0,09075904	0,5140736	0,08030779	-133,1627	-1,359406	-0,8474435	0,2266667	0,2082793	0,2266667	0,2450541	0,2266667	66	68	69	68	-4,948484848	-11,66369697	-11,77570606
-0,09083858	0,5140166	0,0800999	-133,2406	-1,398321	-1,000757	0,2311111	0,2359945	0,2311111	0,2262277	0,2311111	68	68	68	68	-3,954545455	-2,376575758	-4,673833333
-0,09104828	0,513866	0,08083509	-133,2932	-1,437833	-1,00168	0,2311111	0,2496011	0,2311111	0,2126212	0,2311111	69	68	67	68	-0,233333333	-1,969242424	-2,796606061
-0,09129301	0,5137472	0,08107869	-133,2483	-1,463306	-1,093045	0,2311111	0,2450033	0,2311111	0,2172189	0,2311111	69	68	67	68	1,057575758	-4,062393939	-4,58869697
-0,09164402	0,5135777	0,08147227	-133,2583	-1,571892	-1,153107	0,2355556	0,2604798	0,2355556	0,2106313	0,2355556	70	68	66	68	1,536363636	-1,837666667	-5,607848485
-0,09167001	0,5137432	0,08183078	-133,1976	-1,523949	-1,278104	0,2355556	0,2483052	0,2355556	0,2228059	0,2355556	69	68	67	68	2,766666667	-4,118666667	-14,41784848
-0,09222297	0,5139348	0,08243366	-133,167	-1,707808	-1,628896	0,2355556	0,2503834	0,2355556	0,2207277	0,2355556	70	68	67	68	-3,681818182	-1,202242424	-11,67333333
-0,09217264	0,5132712	0,0824206	-133,3191	-1,563623	-1,663324	0,2355556	0,2665699	0,2355556	0,2045412	0,2355556	71	68	66	68	-1,7	6,808878788	-5,322969697
-0,09228465	0,513302	0,08264651	-133,2231	-1,483115	-1,804554	0,24	0,2532843	0,24	0,2267157	0,24	70	69	68	69	-0,872727273	1,661606061	-2,805939394
-0,092418	0,5133455	0,08291256	-133,3479	-1,50879	-1,75592	0,24	0,2724737	0,24	0,2075263	0,24	71	69	66	69	-2,309090909	-2,519575758	4,60030303
-0,09253	0,5133058	0,08292124	-133,2993	-1,566261	-1,652744	0,24	0,2563861	0,24	0,2236139	0,24	70	69	67	69	1,654545455	-3,931484848	5,338909091
-0,09259818	0,5131451	0,08302399	-133,2933	-1,638529	-1,579736	0,24	0,2463281	0,24	0,2336719	0,24	69	69	68	69	-7,157575758	-2,91969697	3,677212121
-0,0925817	0,5130329	0,08296992	-133,5355	-1,662611	-1,531396	0,24	0,2690808	0,24	0,2109192	0,24	71	69	66	69	-8,378787879	-2,897787879	2,128212121
-0,09257501	0,5133115	0,08287726	-133,5698	-1,734156	-1,509505	0,24	0,2785729	0,24	0,2014271	0,24	72	69	66	69	-1,918181818	-1,573030303	5,456545455
-0,09284941	0,512843	0,08297507	-133,5988	-1,714521	-1,35133	0,24	0,2808526	0,24	0,1991474	0,24	72	69	65	69	0,275757576	2,958424242	2,113909091
-0,09273551	0,5129067	0,08298712	-133,5607	-1,636528	-1,439746	0,24	0,2835772	0,24	0,1964228	0,24	72	69	65	69	-8,266666667	12,20315152	9,441757576
-0,09299433	0,5131842	0,08383483	-133,8716	-1,311817	-1,039752	0,24	0,3245524	0,24	0,1554475	0,24	75	69	62	69	0,166666667	0,083545455	0,851090909
-0,09292712	0,5130449	0,08273833	-133,5552	-1,633771	-1,41166	0,24	0,268341	0,24	0,211659	0,24	71	69	66	69	7,6	-8,347969697	-13,69545455
-0,09273608	0,5130408	0,08285083	-133,6208	-1,5873	-1,491702	0,24	0,287719	0,24	0,192281	0,24	73	69	65	69	2,227272727	2,533515152	-3,323151515
-0,09295498	0,5131533	0,08276585	-133,4817	-1,550165	-1,521324	0,24	0,256051	0,24	0,223949	0,24	70	69	67	69	4,418181818	3,271121212	-2,002878788
-0,09264941	0,5131385	0,08263106	-133,475	-1,479353	-1,557797	0,24	0,2610919	0,24	0,2189081	0,24	70	69	67	69	0,987878788	-3,522787879	-1,450242424
-0,09279469	0,5135977	0,08255294	-133,4491	-1,666417	-1,569182	0,24	0,2586895	0,24	0,2213105	0,24	70	69	67	69	-1,83030303	-3,034545455	0,209727273
-0,09242611	0,5135154	0,08257792	-133,5354	-1,579493	-1,550876	0,24	0,2399853	0,24	0,2400146	0,24	69	69	69	69	-4,460606061	3,690969697	4,395909091
-0,09202015	0,5136203	0,08238795	-133,5963	-1,544615	-1,424117	0,24	0,2431824	0,24	0,2368176	0,24	69	69	68	69	-0,487878788	-0,285424242	2,421818182
-0,09216955	0,513934	0,08252911	-133,5515	-1,588912	-1,470956	0,2488889	0,2432163	0,2488889	0,2545615	0,2488889	69	69	70	69	-0,975757576	0,819272727	-0,501
-0,09212531	0,514214	0,08266965	-133,6285	-1,517579	-1,44065	0,2488889	0,2570279	0,2488889	0,2407499	0,2488889	70	69	69	69	-0,912121212	0,315060606	1,43830303
-0,09216994	0,5144323	0,08241102	-133,5816	-1,578515	-1,423492	0,2488889	0,2140879	0,2488889	0,2836899	0,2488889	67	69	72	69	2,521212121	10,5469697	12,27439394
-0,09219781	0,5147934	0,0829272	-133,5453	-1,169529	-1,035595	0,2488889	0,2476969	0,2488889	0,2500809	0,2488889	69	69	70	69	0,757575758	1,257272727	-1,397484848
-0,09187149	0,5150592	0,08237151	-133,5566	-1,537025	-1,469609	0,2488889	0,2411857	0,2488889	0,2565921	0,2488889	69	69	70	69	0,581818182	-10,48984848	-13,96606061
-0,09203418	0,5151626	0,08221412	-133,5261	-1,515694	-1,496475	0,2488889	0,2542173	0,2488889	0,2435605	0,2488889	70	69	69	69	2,090909091	2,999121212	-0,050424242
-0,0922114	0,5150964	0,08224884	-133,4876	-1,438054	-1,471273	0,2488889	0,2503977	0,2488889	0,2473801	0,2488889	70	69	69	69	1,990909091	3,645393939	-2,268606061
-0,09196497	0,515254	0,08216378	-133,4604	-1,395396	-1,571339	0,2488889	0,2502421	0,2488889	0,2475358	0,2488889	70	69	69	69	0,554545455	-0,351939394	-0,396363636
-0,09190787	0,5153778	0,08207457	-133,4693	-1,449668	-1,484353	0,2444444	0,2365142	0,2444444	0,2523747	0,2444444	68	69	70	69	1,027272727	-3,338030303	4,854575758
-0,09179511	0,5154969	0,08208612	-133,4265	-1,505551	-1,411138	0,2488889	0,2285166	0,2488889	0,2692612	0,2488889	68	69	71	69	2,13030303	-2,245	0,674454545
-0,09154988	0,5156382	0,08185836	-133,399	-1,523753	-1,462096	0,2488889	0,2305949	0,2488889	0,2671829	0,2488889	68	69	71	69	0,678787879	4,821515152	9,350060606
-0,09135897	0,5156004	0,08227568	-133,4041	-1,346441	-1,102586	0,2488889	0,2219578	0,2488889	0,27582	0,2488889	67	69	72	69	2,757575758	2,134424242	3,903636364
-0,09109082	0,51519	0,08204883	-133,308	-1,453317	-1,333276	0,2533333	0,2205044	0,2533333	0,2861623	0,2533333	67	70	72	70	0,384848485	-5,033545455	-4,722060606
-0,09096572	0,5153468	0,0819196	-133,3914	-1,512548	-1,258414	0,2488889	0,2304228	0,2488889	0,2673551	0,2488889	68	69	71	69	-1,387878788	-2,990939394	4,651272727
-0,09094881	0,5153085	0,08185782	-133,3538	-1,552018	-1,179784	0,2488889	0,2245561	0,2488889	0,2732217	0,2488889	67	69	71	69	3,781818182	1,844121212	-2,160545455
-0,09055148	0,5153213	0,08190211	-133,2666	-1,451692	-1,329712	0,2488889	0,21775	0,2488889	0,2800277	0,2488889	67	69	72	69	1,112121212	0,110757576	0,675939394
-0,09079464	0,5148731	0,08181074	-133,3171	-1,548363	-1,157478	0,2488889	0,2284269	0,2488889	0,2693509	0,2488889	68	69	71	69	-6,963636364	-3,782757576	5,289909091
-0,09052795	0,5148296	0,081875	-133,4964	-1,576523	-1,155145	0,2488889	0,2532083	0,2488889	0,2445695	0,2488889	70	69	69	69	-5,681818182	2,091363636	-1,052393939
-0,09050366	0,5149824	0,0822222	-133,5046	-1,479348	-1,192207	0,2533333	0,2575704	0,2533333	0,2490963	0,2533333	70	70	69	70	0,966666667	-2,106545455	-9,988272727
-0,09070022	0,5148057	0,08218528	-133,4645	-1,646039	-1,484758	0,2533333	0,2578853	0,2533333	0,2487813	0,2533333	70	70	69	70	0,142424242	-1,20530303	-7,497272727
-0,09042925	0,5146376	0,08256119	-133,4999	-1,519123	-1,439617	0,2533333	0,2654366	0,2533333	0,2412301	0,2533333	71	70	69	70	0,581818182	-0,648090909	-4,628939394
-0,09037331	0,5147403	0,08231381	-133,4453	-1,667426	-1,637513	0,2577778	0,2627234	0,2577778	0,2528321	0,2577778	71	70	70	70	1,327272727	-5,901454545	-8,311666667
-0,09053008	0,5147524	0,08266873	-133,4561	-1,713871	-1,713902	0,2533333	0,2711073	0,2533333	0,2355593	0,2533333	71	70	68	70	3,784848485	4,672818182	-6,310848485
-0,09041119	0,5148017	0,08293135	-133,3204	-1,513223	-1,845771	0,2533333	0,2448061	0,2533333	0,2618605	0,2533333	69	70	70	70	2,790909091	3,296545455	0,987393939
-0,09046078	0,5150181	0,08299758	-133,364	-1,605085	-1,681318	0,2533333	0,2545546	0,2533333	0,252112	0,2533333	70	70	70	70	-2,427272727	-2,140545455	5,581363636
-0,0903908	0,5151843	0,08303323	-133,4005	-1,583861	-1,661586	0,2533333	0,2693971	0,2533333	0,2372695	0,2533333	71	70	68	70	-4,06969697	1,325	-0,634
-0,09045152	0,5152797	0,08299583	-133,4983	-1,56136	-1,70224	0,2533333	0,2750807	0,2533333	0,2315859	0,2533333	72	70	68	70	-4,751515152	-0,177060606	2,534060606
-0,09044165	0,5155966	0,08299861	-133,5573	-1,589704	-1,577962	0,2533333	0,2606411	0,2533333	0,2460256	0,2533333	70	70	69	70	-4,278787879	-1,800606061	3,28469697
-0,09067276	0,515671	0,08279855	-133,6395	-1,62078	-1,593845	0,2533333	0,2695162	0,2533333	0,2371505	0,2533333	71	70	68	70	-7,327272727	-4,473484848	3,666727273
-0,09089518	0,5157861	0,08352052	-133,7991	-1,737329	-1,45696	0,2533333	0,2934901	0,2533333	0,2131765	0,2533333	73	70	67	70	0,084848485	5,081939394	5,73969697
-0,09097663	0,5155802	0,08291382	-133,6367	-1,453076	-1,404435	0,2577778	0,2742005	0,2577778	0,2413551	0,2577778	71	70	69	70	3,615151515	7,629212121	1,009363636
-0,09087866	0,5156779	0,0828729	-133,6798	-1,485565	-1,423651	0,2533333	0,2814674	0,2533333	0,2251992	0,2533333	72	70	68	70	4,348484848	-4,951666667	4,556181818
-0,09071494	0,515809	0,08275028	-133,4932	-1,616481	-1,254081	0,2533333	0,2577846	0,2533333	0,248882	0,2533333	70	70	69	70	-0,309090909	-2,932606061	1,629848485
-0,09108639	0,5156225	0,08298286	-133,69	-1,582341	-1,369866	0,2533333	0,2976905	0,2533333	0,2089761	0,2533333	73	70	66	70	-6,990909091	2,348030303	-4,429757576
-0,09095149	0,5157168	0,08309446	-133,7239	-1,538996	-1,400263	0,2533333	0,2965205	0,2533333	0,2101462	0,2533333	73	70	66	70	-1,548484848	0,404272727	-0,371424242
-0,09096607	0,5155675	0,08336827	-133,7411	-1,569	-1,382123	0,2533333	0,2942061	0,2533333	0,2124606	0,2533333	73	70	66	70	-0,109090909	0,132545455	0,137757576
-0,09097835	0,5156457	0,08335073	-133,7275	-1,534622	-1,395717	0,2533333	0,2808357	0,2533333	0,2258309	0,2533333	72	70	68	70	1,509090909	-3,224060606	-2,769151515
-0,09135067	0,5159187	0,08367193	-133,6913	-1,675394	-1,473505	0,2533333	0,2694154	0,2533333	0,2372512	0,2533333	71	70	68	70	-3,533333333	0,279121212	-2,563060606
-0,09136528	0,5155764	0,08331072	-133,8441	-1,525411	-1,480298	0,2533333	0,2778877	0,2533333	0,2287789	0,2533333	72	70	68	70	-4,078787879	5,999515152	-0,981545455
-0,09106889	0,5155675	0,08331103	-133,8259	-1,47741	-1,505896	0,2533333	0,2565468	0,2533333	0,2501198	0,2533333	70	70	70	70	2,672727273	0,334757576	3,184363636
-0,09096354	0,5155253	0,08314648	-133,7559	-1,514364	-1,375214	0,2533333	0,2676283	0,2533333	0,2390383	0,2533333	71	70	69	70	-1,612121212	-3,463515152	9,375727273
-0,09118079	0,515442	0,08308559	-133,8791	-1,591706	-1,196497	0,2533333	0,277256	0,2533333	0,2294106	0,2533333	72	70	68	70	-3,196969697	-0,065757576	8,472090909
-0,09053355	0,5154881	0,08300979	-133,8614	-1,516534	-1,095635	0,2577778	0,3019537	0,2577778	0,2136018	0,2577778	74	70	67	70	-1,490909091	-0,353969697	10,51516061
-0,09021106	0,5155061	0,08297329	-133,9283	-1,603387	-0,8494967	0,2533333	0,2819344	0,2533333	0,2247323	0,2533333	72	70	67	70	-2,703030303	-0,214181818	13,13870303
-0,08968119	0,5154011	0,08264507	-133,9506	-1,523602	-0,6620578	0,2533333	0,2805428	0,2533333	0,2261239	0,2533333	72	70	68	70	-2,136363636	-3,362757576	8,695115152
-0,08941057	0,5153167	0,08237166	-133,9988	-1,714358	-0,5625579	0,2533333	0,2842616	0,2533333	0,222405	0,2533333	72	70	67	70	-1,784848485	-5,678848485	11,05666061
-0,08923698	0,5155519	0,08248207	-134,0095	-1,711004	-0,297188	0,2533333	0,2871712	0,2533333	0,2194955	0,2533333	72	70	67	70	-2,227272727	-2,806181818	10,36550606
-0,08890896	0,5153651	0,08232866	-134,0723	-1,806962	-0,2204962	0,2533333	0,2990602	0,2533333	0,2076065	0,2533333	73	70	66	70	5,284848485	1,685636364	23,82764242
-0,08815265	0,515852	0,08182915	-133,8351	-1,655378	0,4891242	0,2533333	0,2522548	0,2533333	0,2544118	0,2533333	70	70	70	70	4,427272727	4,859151515	40,38130909
-0,08784575	0,515665	0,08200745	-133,9262	-1,64661	1,112087	0,2533333	0,2653762	0,2533333	0,2412905	0,2533333	71	70	69	70	0,609090909	6,348757576	33,25444848
-0,08697792	0,5162223	0,08164039	-133,815	-1,445869	1,586521	0,2577778	0,2648731	0,2577778	0,2506824	0,2577778	71	70	70	70	-0,533333333	-1,947242424	41,74018182
-0,08597163	0,5170925	0,08094607	-133,9438	-1,710869	2,489513	0,2533333	0,2610933	0,2533333	0,2455733	0,2533333	70	70	69	70	-3,027272727	-2,826424242	63,91115152
-0,08486864	0,5179517	0,08033249	-133,9149	-1,539141	3,695589	0,2533333	0,2597585	0,2533333	0,2469082	0,2533333	70	70	69	70	1,684848485	11,63948485	84,46469697
-0,08352838	0,5187051	0,07975602	-133,8882	-1,326766	5,276848	0,2533333	0,2485195	0,2533333	0,2581472	0,2533333	69	70	70	70	1,948484848	9,250969697	112,0153939
-0,08209249	0,5195454	0,07903177	-133,8506	-1,233859	7,392097	0,2533333	0,2413326	0,2533333	0,265334	0,2533333	69	70	71	70	3,584848485	3,983	133,9763333
-0,08047512	0,5206599	0,07816126	-133,7699	-1,195327	9,698067	0,2533333	0,2258621	0,2533333	0,2808046	0,2533333	68	70	72	70	-5,760606061	8,633521212	149,4576667
-0,07843366	0,5212739	0,07809155	-134,0407	-0,9489528	12,3242	0,2533333	0,2570833	0,2533333	0,2495833	0,2533333	70	70	69	70	9,651515152	9,798693939	170,1116061
-0,07628936	0,522459	0,07638467	-133,4514	-0,8719701	15,31175	0,2533333	0,178826	0,2533333	0,3278406	0,2533333	64	70	76	70	29,22424242	11,2310697	200,5245455
-0,07402746	0,5233309	0,07558798	-133,0763	-0,5783275	18,94151	0,2533333	0,1622752	0,2533333	0,3443915	0,2533333	62	70	77	70	21,46363636	5,063948485	230,039697
-0,07155822	0,5232061	0,07459114	-132,7431	-0,7048598	22,90306	0,2533333	0,1113536	0,2533333	0,395313	0,2533333	58	70	81	70	18,27575758	-8,252915152	237,9075758
-0,06898551	0,5235167	0,07338427	-132,4732	-0,8506737	26,79246	0,2533333	0,09231985	0,2533333	0,4143468	0,2533333	57	70	83	70	16,74545455	2,345642424	238,9193939
-0,0664924	0,5232438	0,07284553	-132,1905	-0,6274536	30,7874	0,2533333	0	0	0	0	50	50	50	50	8,851515152	-4,313	173,9027273
-0,06562489	0,5228525	0,07214768	-132,1811	-0,9930027	32,53125	0,2533333	0	0	0	0	50	50	50	50	5,724242424	-15,29258788	156,2806061
-0,06417379	0,5216973	0,0712044	-132,0016	-1,132109	35,94466	0,2533333	0	0	0	0	50	50	50	50	7,381818182	-14,45534242	185,9387879
-0,06265084	0,5207804	0,06996898	-131,9375	-1,470029	38,66723	0,2533333	0	0	0	0	50	50	50	50	10,80909091	-12,64439394	156,5257576
-0,06123162	0,5203875	0,06907938	-131,6449	-1,549374	41,11001	0,2533333	0	0	0	0	50	50	50	50	24,44242424	-3,56830303	117,6718182
-0,06070219	0,5196562	0,06762748	-131,1309	-1,587783	42,5504	0,2533333	0	0	0	0	50	50	50	50	27,12424242	-8,459181818	77,89060606
-0,06050438	0,5188662	0,0666088	-130,7498	-1,828527	43,6804	0,2533333	0	0	0	0	50	50	50	50	7,775757576	-15,65242424	54,22969697
-0,06101193	0,5178211	0,06621096	-130,8743	-2,104313	44,33998	0,2577778	0	0	0	0	50	50	50	50	8,124242424	-10,89878788	20,1730303
-0,06085703	0,5167924	0,06519367	-130,4817	-2,188187	44,34611	0,2533333	0	0	0	0	50	50	50	50	8,015151515	-5,447333333	-18,59575758
-0,06070615	0,5169906	0,06413959	-130,6098	-2,284075	43,72632	0,2533333	0	0	0	0	50	50	50	50	-6,463636364	-0,387363636	-32,50212121
-0,06119357	0,5163244	0,06441268	-130,695	-2,20097	43,27354	0,2533333	0	0	0	0	50	50	50	50	-4,863636364	4,083727273	-49,50909091
-0,06176212	0,5159957	0,0638787	-130,7703	-2,149312	42,09252	0,2533333	0	0	0	0	50	50	50	50	3,778787879	1,495212121	-99,39787879
-0,06170433	0,5161497	0,06359555	-130,5703	-2,151628	39,99341	0,2533333	0	0	0	0	50	50	50	50	-2,357575758	-9,919848485	-124,2733333
-0,06193666	0,5160979	0,06343514	-130,8481	-2,476667	37,9915	0,2577778	0	0	0	0	50	50	50	50	-13,77878788	-25,81548485	-131,9451515
-0,06221419	0,5160164	0,06372419	-131,025	-3,003539	35,63922	0,2577778	0	0	0	0	50	50	50	50	-2,718181818	-17,51415152	-149,4815152
-0,06149228	0,5165484	0,06365322	-130,9378	-3,054634	33,05861	0,2577778	0	0	0	0	50	50	50	50	14,26363636	-24,73945455	-173,9790909
-0,06117082	0,5165528	0,06379683	-130,5543	-3,819941	29,89791	0,2577778	0,2343238	0,2577778	0,2812317	0,2577778	68	70	72	70	26,78787879	-34,89321212	-185,1784848
-0,06146418	0,5167848	0,06390445	-130,0538	-4,20611	26,94772	0,2577778	0,159313	0,2577778	0,3562425	0,2577778	62	70	78	70	30,49090909	-14,14284848	-193,4354545
-0,06199912	0,5174152	0,06420845	-129,5481	-4,286655	23,51454	0,2577778	0,1457449	0,2577778	0,3698106	0,2577778	61	70	79	70	29,01212121	-0,279575758	-211,7609091
-0,06310476	0,518018	0,06482639	-129,0964	-4,215336	19,95961	0,2666667	0,08505937	0,2666667	0,448274	0,2666667	56	71	85	71	17,01515152	8,697878788	-221,3236364
-0,0647264	0,5184436	0,06576346	-128,9866	-3,999625	16,21086	0,2755556	0,07054742	0,2755556	0,4805637	0,2755556	55	72	88	72	1,451515152	8,752515152	-228,3281818
-0,06664345	0,5186941	0,06671979	-129,0485	-3,926503	12,42478	0,2755556	0,06894341	0,2755556	0,4821677	0,2755556	55	72	88	72	-11,27575758	-5,700454545	-232,0976364
-0,06826591	0,5192844	0,06775329	-129,3587	-4,18774	8,551638	0,2755556	0,1301628	0,2755556	0,4209483	0,2755556	60	72	83	72	-20,88484848	-2,459363636	-212,1878485
-0,07020969	0,5199339	0,06969836	-129,7377	-4,007662	5,422581	0,28	0,1467508	0,28	0,4132493	0,28	61	72	83	72	-23,79393939	-7,496242424	-220,8231212
-0,07191987	0,519882	0,07062945	-130,1439	-4,435116	1,264475	0,28	0,1742623	0,28	0,3857377	0,28	63	72	80	72	-21,1969697	-19,82872727	-227,8175455
-0,07402832	0,5203406	0,07215517	-130,4372	-4,66201	-2,095398	0,28	0,219936	0,28	0,340064	0,28	67	72	77	72	-21,82121212	-7,968606061	-207,4503939
-0,07623781	0,5203802	0,07361875	-130,864	-4,69808	-5,581388	0,28	0,3171648	0,28	0,2428351	0,28	75	72	69	72	-22,54242424	-5,642878788	-200,6349394
-0,07835513	0,5197741	0,07553475	-131,1811	-4,848225	-8,716351	0,28	0,4152744	0,28	0,1447256	0,28	83	72	61	72	-11,12121212	-15,69039394	-188,2049091
-0,08080982	0,5194877	0,07755586	-131,231	-5,215863	-11,79215	0,28	0,4819485	0,28	0,07805154	0,28	88	72	56	72	-3,703030303	-20,66542424	-191,4069394
-0,08343153	0,5191219	0,08011365	-131,3033	-5,530184	-15,03278	0,28	0,544825	0,28	0,01517507	0,28	93	72	51	72	-3,578787879	-10,41133333	-194,3645455
-0,08583228	0,5186564	0,08228565	-131,3491	-5,559437	-18,20618	0,28	0,5635016	0,28	0	0,28	95	72	50	72	-1,333333333	5,585666667	-182,3842424
-0,08819447	0,5183935	0,08455284	-131,3473	-5,345857	-21,05146	0,28	0,5558515	0,28	0,004148483	0,28	94	72	50	72	-1,203030303	10,67645455	-152,0109091
-0,09072752	0,5182304	0,0870941	-131,3888	-5,207114	-23,22254	0,28	0,5236195	0,28	0,03638048	0,28	91	72	52	72	8,027272727	20,37227273	-119,8733333
-0,09341395	0,518521	0,08870044	-131,0824	-4,673572	-25,00728	0,28	0,4413595	0,28	0,1186405	0,28	85	72	59	72	-0,554545455	17,50524242	-51,56575758
-0,09543435	0,5196533	0,09118079	-131,4071	-4,629441	-24,92421	0,28	0,4315872	0,28	0,1284128	0,28	84	72	60	72	-11,97878788	16,20239394	-16,15757576
-0,09716622	0,5210501	0,09084283	-131,4777	-4,138893	-25,54048	0,28	0,4048539	0,28	0,1551461	0,28	82	72	62	72	-12,08181818	31,91651515	4,648484848
-0,09881629	0,5229723	0,09105884	-131,8058	-3,576196	-24,77081	0,28	0,3930143	0,28	0,1669857	0,28	81	72	63	72	-25,45757576	26,14921212	70,10787879
-0,1003655	0,5252715	0,09054449	-132,3178	-3,275969	-23,22692	0,28	0,4164115	0,28	0,1435885	0,28	83	72	61	72	-28,74545455	18,53766667	116,2375758
-0,1011444	0,5281779	0,0900086	-132,7544	-2,964453	-20,93497	0,28	0,4628066	0,28	0,09719336	0,28	87	72	57	72	-26,24545455	16,22987879	159,5027273
-0,1014707	0,5308375	0,08858418	-133,1839	-2,740383	-17,96333	0,28	0,5056661	0,28	0,05433394	0,28	90	72	54	72	-35,18787879	22,57348485	189,2966667
-0,1016979	0,5333452	0,08758394	-133,9156	-2,219528	-14,68818	0,28	0,5879791	0,28	0	0,28	97	72	50	72	-41,41515152	11,77106061	199,7630303
-0,1013072	0,5359855	0,08532832	-134,5506	-2,351938	-11,37115	0,28	0,6643944	0,28	0	0,28	103	72	50	72	-22,16666667	4,759333333	217,0747879
-0,1000831	0,538812	0,08333121	-134,6471	-2,06247	-7,524712	0,28	0,6709935	0,28	0	0,28	103	72	50	72	-17,80606061	16,97906061	244,2199394
-0,0979845	0,5408815	0,08172829	-135,1382	-1,791629	-3,311892	0,28	0,7666916	0,28	0	0,28	111	72	50	72	-17,51515152	26,44030303	262,9835152
-0,09615584	0,5424533	0,07990571	-135,2251	-1,18994	1,153744	0,28	0,7381638	0,28	0	0,28	109	72	50	72	-7,609090909	32,37472424	279,3525455
-0,09289013	0,5435535	0,07774298	-135,3893	-0,7232631	5,906742	0,28	0,7493954	0,28	0	0,28	109	72	50	72	-15,03636364	15,84048485	294,6386667
-0,08902635	0,544469	0,07583939	-135,7213	-0,667204	10,87682	0,28	0,7498513	0,28	0	0,28	109	72	50	72	-9,084848485	6,0817	233,9778182
-0,08637179	0,544513	0,07445446	-135,6891	-0,522567	13,62801	0,28	0,6845524	0,28	0	0,28	104	72	50	72	1,139393939	9,321218182	264,8281818
-0,08136851	0,5445976	0,07213146	-135,6837	-0,3596038	19,61615	0,28	0,6315142	0,28	0	0,28	100	72	50	72	6,478787879	15,65218294	382,6542424
-0,07648926	0,5430577	0,07003342	-135,4753	-0,006044963	26,2556	0,28	0,5549653	0,28	0,005034715	0,28	94	72	50	72	4,239393939	21,32911818	382,7957576
-0,07164878	0,5416322	0,06755953	-135,5438	0,3442571	32,24841	0,28	0	0	0	0	50	50	50	50	-6,390909091	19,91792312	336,81
-0,06733974	0,5397177	0,06489279	-135,6862	0,6512465	37,37033	0,28	0	0	0	0	50	50	50	50	-4,384848485	21,00723939	285,2463636
-0,06312784	0,5378641	0,06203758	-135,6885	1,037496	41,66154	0,28	0	0	0	0	50	50	50	50	15,11818182	17,03237879	236,2960606
-0,05961378	0,5363256	0,05899265	-135,1873	1,213315	45,1681	0,28	0	0	0	0	50	50	50	50	38,31515152	10,17342424	173,0227273
-0,05748165	0,5347854	0,05626657	-134,4241	1,373219	47,37129	0,28	0	0	0	0	50	50	50	50	53,22121212	3,223727273	101,6051515
-0,05600257	0,5335144	0,05467458	-133,431	1,319698	48,52107	0,28	0	0	0	0	50	50	50	50	50,35757576	-17,74011818	35,05333333
-0,05487506	0,5326516	0,05313103	-132,7623	0,7877951	48,52805	0,28	0	0	0	0	50	50	50	50	43,44242424	-31,39731212	-22,82424242
-0,05421191	0,5319748	0,05274831	-131,9974	0,2835867	47,76787	0,28	0	0	0	0	50	50	50	50	43,87575758	-33,70564242	-56,67242424
-0,05394462	0,5313084	0,0529321	-131,3144	-0,3244911	46,65786	0,28	0	0	0	0	50	50	50	50	39,15757576	-37,53803939	-86,82848485
-0,05398151	0,5309561	0,05420101	-130,7052	-0,9551686	44,90253	0,28	0	0	0	0	50	50	50	50	25,76969697	-40,92648182	-91,76151515
-0,05502717	0,5304489	0,05576851	-130,464	-1,675065	43,62973	0,28	0	0	0	0	50	50	50	50	7,442424242	-31,55558788	-105,6206061
-0,0561218	0,5296507	0,05796019	-130,4596	-1,996503	41,41705	0,28	0	0	0	0	50	50	50	50	-10,08787879	-19,78384848	-164,4860606
-0,05733997	0,5292463	0,06049848	-130,7969	-2,327932	38,20169	0,28	0	0	0	0	50	50	50	50	-14,91515152	-23,17721212	-197,059697
-0,05883495	0,5287634	0,06340169	-130,9518	-2,761351	34,91408	0,28	0	0	0	0	50	50	50	50	1,715151515	-20,77715152	-186,4733333
-0,06009392	0,5281027	0,06655215	-130,7403	-3,013578	32,04807	0,28	0	0	0	0	50	50	50	50	15,10606061	-26,24663636	-177,7206061
-0,06162042	0,5273461	0,06967459	-130,4533	-3,62749	29,0493	0,28	0	0,28	0,6373131	0,28	50	72	100	72	16,63636364	-33,25518182	-183,1384848
-0,06405736	0,5257277	0,07244916	-130,1913	-4,110999	26,0045	0,28	0	0,28	0,5885211	0,28	50	72	97	72	11,33030303	-28,80684848	-196,9651515
-0,06524756	0,5251209	0,07473615	-130,0794	-4,578116	22,54945	0,28	0,04983872	0,28	0,5101613	0,28	53	72	90	72	4,248484848	-17,26142424	-199,7993939
-0,06670167	0,5240983	0,07715292	-130,0511	-4,680626	19,41112	0,28	0,1284055	0,28	0,4315946	0,28	60	72	84	72	2,387878788	-0,049818182	-172,9818182
-0,06812631	0,5222626	0,07945556	-130,0006	-4,57976	16,84105	0,28	0,1954457	0,28	0,3645543	0,28	65	72	79	72	-1,63030303	-4,240727273	-156,0854545
-0,06960051	0,520893	0,0812841	-130,1049	-4,82057	14,2603	0,28	0,2369154	0,28	0,3230846	0,28	68	72	75	72	-8,542424242	-19,58272727	-154,2054545
-0,07113659	0,5199988	0,08268712	-130,2825	-5,22599	11,75227	0,28	0,2587397	0,28	0,3012603	0,28	70	72	74	72	-11,08787879	-9,241454545	-133,2242727
-0,0729002	0,5188909	0,08435333	-130,4708	-5,125538	9,863899	0,2844445	0,2453204	0,2844445	0,3235685	0,2844445	69	72	75	72	-17,36969697	-5,339212121	-130,9361212
-0,07437547	0,5171142	0,08515815	-130,8557	-5,402184	7,431378	0,2933333	0,2818014	0,2933333	0,3048653	0,2933333	72	73	74	73	-24,63939394	-7,163242424	-148,1999697
-0,07616809	0,5161225	0,08623804	-131,2839	-5,361925	4,9733	0,2933333	0,3585663	0,2933333	0,2281003	0,2933333	78	73	68	73	-22,97272727	1,328878788	-148,6918182
-0,07798877	0,5151762	0,08744755	-131,6138	-5,358331	2,524548	0,2933333	0,4325902	0,2933333	0,1540764	0,2933333	84	73	62	73	-13,0030303	-10,51618182	-148,1905327
-0,07982177	0,5144807	0,08844363	-131,713	-5,708959	0,08301242	0,2933333	0,475944	0,2933333	0,1107226	0,2933333	88	73	58	73	-0,724242424	-13,6970303	-138,6243939
-0,08203929	0,5137256	0,08984233	-131,6377	-5,810333	-2,050057	0,2933333	0,4803312	0,2933333	0,1063354	0,2933333	88	73	58	73	2,327272727	3,678333333	-138,9474673
-0,083785	0,5131686	0,09083606	-131,6362	-5,587574	-4,502254	0,2977778	0,4879892	0,2977778	0,1075663	0,2977778	89	73	58	73	11,14242424	13,44566667	-132,4617576
-0,08569603	0,5125043	0,09172877	-131,27	-5,366626	-6,421295	0,2977778	0,4501066	0,2977778	0,145449	0,2977778	86	73	61	73	18,96969697	14,44463636	-114,6595152
-0,08707225	0,5120541	0,0916208	-131,0102	-5,110901	-8,286018	0,2977778	0,4064122	0,2977778	0,1891433	0,2977778	82	73	65	73	5,757575758	15,30321212	-87,39293939
-0,08902697	0,5117887	0,09271712	-131,08	-4,86162	-9,305262	0,3022222	0,3979203	0,3022222	0,2065242	0,3022222	81	74	66	74	2,615151515	18,35936364	-51,55918182
-0,08997768	0,5115795	0,09332827	-130,9239	-4,505042	-9,987471	0,3022222	0,3565879	0,3022222	0,2478565	0,3022222	78	74	69	74	-4,13030303	6,744	-10,80769697
-0,09098966	0,5120345	0,09325943	-131,2163	-4,639068	-9,661916	0,3022222	0,3454918	0,3022222	0,2589526	0,3022222	77	74	70	74	-19,73939394	0,233	22,37684848
-0,0913313	0,5124065	0,09319967	-131,5753	-4,497353	-9,249035	0,3022222	0,3371862	0,3022222	0,2672583	0,3022222	76	74	71	74	-24,71818182	8,825515152	32,36766667
-0,09101251	0,5132836	0,09278189	-132,032	-4,347826	-8,593783	0,3022222	0,3524022	0,3022222	0,2520423	0,3022222	78	74	70	74	-20,91818182	-2,792030303	41,85993939
-0,09132209	0,5133728	0,0923343	-132,2656	-4,58949	-7,867657	0,3022222	0,3685301	0,3022222	0,2359144	0,3022222	79	74	68	74	-13,45454545	2,227727273	58,05521212
-0,0916511	0,5141099	0,09264394	-132,476	-4,274311	-6,677961	0,3022222	0,4028165	0,3022222	0,2016279	0,3022222	82	74	66	74	-7,048484848	7,56969697	40,41487879
-0,09204914	0,5147579	0,09236728	-132,4982	-4,33969	-6,533966	0,3022222	0,4056693	0,3022222	0,1987752	0,3022222	82	74	65	74	0,066666667	2,331909091	15,92278788
-0,09302565	0,515027	0,09240213	-132,4738	-4,197358	-6,152509	0,3022222	0,4466738	0,3022222	0,1577706	0,3022222	85	74	62	74	4,433333333	9,507	16,56990909
-0,0940625	0,5153573	0,0924843	-132,3519	-4,025959	-5,987159	0,3022222	0,4632302	0,3022222	0,1412143	0,3022222	87	74	61	74	4,775757576	8,36969697	5,116484848
-0,09467266	0,5154232	0,0925706	-132,3162	-3,921158	-5,983665	0,3022222	0,4505721	0,3022222	0,1538723	0,3022222	86	74	62	74	4,124242424	12,83890909	0,090121212
-0,09597088	0,5155584	0,09274524	-132,2158	-3,602275	-5,984185	0,3022222	0,4572555	0,3022222	0,147189	0,3022222	86	74	61	74	2,045454545	15,08654545	-3,028363636
-0,09635508	0,5158597	0,09273572	-132,2487	-3,423302	-6,083601	0,3022222	0,4261166	0,3022222	0,1783278	0,3022222	84	74	64	74	-4,090909091	4,632151515	6,210727273
-0,09768624	0,516254	0,09305838	-132,3508	-3,449414	-5,779231	0,3022222	0,3952891	0,3022222	0,2091554	0,3022222	81	74	66	74	-6,345454545	-1,392878788	14,95833333
