X	Y	Z	Yaw	Pitch	Roll	Thrust	T1	T2	T3	T4	PWM1	PWM2	PWM3	PWM4
-0,02349266	0,5832671	-0,1898328	49,44957	1,03297	-1,326161	0	0,02078511	0,02359131	0	0	0	0	0	0
-0,02373477	0,5833054	-0,1899804	49,46833	0,9895856	-1,288356	0	0,01944611	0,02277941	0	0	0	0	0	0
-0,02390074	0,5832593	-0,1901459	49,49361	0,9398623	-1,22538	0	0,01568535	0,02165242	0	0	0	0	0	0
-0,024081	0,5831271	-0,1902602	49,54708	0,9323004	-1,146719	0	0,003488176	0,02079019	0	0	0	0	0	0
-0,02400381	0,5829772	-0,1902819	49,55106	0,9334107	-1,062486	0	0	0,01995897	0,003755621	0	0	0	0	0
-0,02395334	0,5828165	-0,1902537	49,59621	0,9635566	-1,015341	0	0	0,01978897	0,01464235	0	0	0	0	0
-0,02392365	0,5827384	-0,1902117	49,61117	0,9834582	-1,004857	0	0	0,01988315	0,01948263	0	0	0	0	0
-0,02381406	0,5826056	-0,1901422	49,65729	1,063655	-0,9944673	0	0	0,02058122	0,02800978	0	0	0	0	0
-0,02374167	0,5825748	-0,1901056	49,66249	1,081475	-1,001285	0	0	0,02082761	0,02902206	0	0	0	0	0
-0,02362557	0,5825216	-0,1900881	49,64584	1,082219	-1,031529	0	0	0,02113749	0,02546413	0	0	0	0	0
-0,02343839	0,5825327	-0,1900243	49,57823	1,062019	-1,098479	0	0	0,02160498	0,01507437	0	0	0	0	0
-0,02341703	0,5825863	-0,1900176	49,50972	1,087874	-1,189854	0	0	0,02277728	0,003946918	0	0	0	0	0
-0,02347058	0,5827329	-0,1899926	49,42708	1,131627	-1,306265	0	0,009730212	0,02437892	0	0	0	0	0	0
-0,02356667	0,5828987	-0,1899716	49,35481	1,162681	-1,410144	0	0,02554725	0,02572825	0	0	0	0	0	0
-0,02370538	0,5830764	-0,1900151	49,2758	1,182599	-1,488872	0	0,03609398	0,02671471	0	0	0	0	0	0
-0,02394198	0,5832835	-0,190106	49,19603	1,175839	-1,564423	0	0,0519079	0,02740262	0	0	0	0	0	0
-0,02423379	0,5834278	-0,1902056	49,15057	1,133117	-1,588563	0	0,05982656	0,0272168	0	0	0	0	0	0
-0,02450687	0,5835556	-0,1902884	49,11973	1,048829	-1,54492	0	0,06946793	0,02593749	0	0	0	0	0	0
-0,02475008	0,5836385	-0,1903649	49,11634	0,9566458	-1,453992	0	0,07051227	0,02410638	0	0	0	0	0	0
-0,0249274	0,5836419	-0,1904037	49,15132	0,8914348	-1,333148	0	0,06375921	0,02224583	0	0	0	0	0	0
-0,02508282	0,5836237	-0,1904047	49,23135	0,8975502	-1,218239	0	0,04483217	0,02115789	0	0	0	0	0	0
-0,02520516	0,5836048	-0,1903616	49,35006	0,92773	-1,144597	0	0,02132833	0,02072327	0	0	0	0	0	0
-0,02527334	0,5835567	-0,190232	49,47235	0,945842	-1,081793	0	0	0,02027635	0,004072299	0	0	0	0	0
-0,02535069	0,5834921	-0,1900687	49,58105	0,9990392	-1,00671	0	0	0,02005749	0,02707138	0	0	0	0	0
-0,02543579	0,5834162	-0,1898763	49,63688	1,0621	-0,9368801	0	0	0,0199898	0,04458173	0	0	0	0	0
-0,02555037	0,5832831	-0,1896461	49,67684	1,084136	-0,8778304	0	0	0,01961966	0,05975993	0	0	0	0	0
-0,02579389	0,5832091	-0,1892783	49,62926	1,081722	-0,7868392	0	0	0,01868561	0,06039256	0	0	0	0	0
-0,02606798	0,5830831	-0,1889938	49,6251	1,085021	-0,7034406	0	0	0,01788462	0,06446068	0	0	0	0	0
-0,02609576	0,5829664	-0,1885523	49,52311	1,0604	-0,59399	0	0	0,0165439	0,05347672	0	0	0	0	0
-0,02615734	0,5828291	-0,1881548	49,47292	1,054617	-0,513111	0	0	0,01567728	0,04400767	0	0	0	0	0
-0,02631807	0,5826159	-0,1877386	49,38228	1,049934	-0,4236727	0	0	0,01473607	0,02437354	0	0	0	0	0
-0,02644311	0,5823572	-0,1872675	49,29786	1,079943	-0,3074859	0	0	0,01387429	0,001461007	0	0	0	0	0
-0,02663898	0,581994	-0,1868513	49,24894	1,155442	-0,2146563	0	0,01740102	0,01370098	0	0	0	0	0	0
-0,02668728	0,5816125	-0,1864012	49,17441	1,240646	-0,1284654	0	0,03767434	0,01369111	0	0	0	0	0	0
-0,02673597	0,5811044	-0,1859316	49,11905	1,381209	-0,043449	0	0,04876233	0,01424658	0	0	0	0	0	0
-0,02659594	0,5805988	-0,1853328	49,06736	1,511836	0,007195259	0	0,05794645	0,0150464	0	0	0	0	0	0
-0,02666933	0,5801028	-0,18475	49,0969	1,634525	-0,006663475	0	0,04760446	0,01641189	0	0	0	0	0	0
-0,02650269	0,5796708	-0,1840838	49,02401	1,727234	0,03508746	0	0,05450739	0,01692146	0	0	0	0	0	0
-0,02643998	0,5792789	-0,1834627	48,98655	1,831526	0,09258091	0	0,04514647	0,01738945	0	0	0	0	0	0
-0,02643034	0,5788769	-0,1828576	48,89216	1,952329	0,1888839	0	0,04827951	0,01763445	0	0	0	0	0	0
-0,02635416	0,5785946	-0,1823756	48,82172	2,062049	0,3241832	0	0,04340455	0,01737866	0	0	0	0	0	0
-0,02640056	0,5782996	-0,1819564	48,76565	2,17739	0,4271519	0	0,03781936	0,01750238	0	0	0	0	0	0
-0,02625668	0,5780799	-0,1816157	48,72497	2,272181	0,5480627	0	0,03467357	0,01724118	0	0	0	0	0	0
-0,02603837	0,57794	-0,1814531	48,68293	2,362624	0,6457587	0	0,02889387	0,01716865	0	0	0	0	0	0
-0,02586896	0,577894	-0,1813854	48,66647	2,416508	0,6973357	0	0,02317053	0,01719173	0	0	0	0	0	0
-0,02541137	0,5776437	-0,1816096	48,70796	2,663186	0,8940165	0	0,007556553	0,01769169	0	0	0	0	0	0
-0,02506452	0,5775794	-0,1821385	48,82276	2,779055	1,014179	0	0	0,01764875	0,005035219	0	0	0	0	0
-0,02484301	0,5775324	-0,1824645	48,86226	2,817276	1,060168	0	0	0,01757108	0,01936393	0	0	0	0	0
-0,02439629	0,577668	-0,1830159	48,99751	2,781108	1,116838	0	0	0,0166427	0,04029506	0	0	0	0	0
-0,02372716	0,5779545	-0,1836211	49,1118	2,657865	1,116414	0	0	0,01541451	0,06409985	0	0	0	0	0
-0,02289634	0,5782347	-0,1843137	49,1953	2,500585	1,088513	0	0	0,01412072	0,08072014	0	0	0	0	0
-0,02204131	0,5786435	-0,1847471	49,28072	2,340115	1,047455	0	0	0,0129266	0,09568329	0	0	0	0	0
-0,02092294	0,5790421	-0,1848919	49,31153	2,247089	0,9704763	0	0	0,01276613	0,1025622	0	0	0	0	0
-0,01979747	0,5793836	-0,1848796	49,37273	2,240353	0,8435132	0	0	0,0139684	0,1136145	0	0	0	0	0
-0,01872821	0,5796844	-0,1846597	49,40263	2,28269	0,7359959	0	0	0,01546694	0,1185259	0	0	0	0	0
-0,01763594	0,5799491	-0,1841439	49,44456	2,428888	0,6266313	0	0	0,01802256	0,1189478	0	0	0	0	0
-0,01676926	0,5803775	-0,1832068	49,58051	2,719324	0,530511	0	0	0,02188813	0,1234279	0	0	0	0	0
-0,01604483	0,5808838	-0,1821559	49,62999	2,985405	0,4522316	0	0	0,02533173	0,1265043	0	0	0	0	0
-0,01557784	0,5814949	-0,1808507	49,74364	3,166115	0,4750882	0	0	0,02691026	0,1259481	0	0	0	0	0
-0,01527377	0,5822255	-0,1793096	49,83571	3,189056	0,6466636	0	0	0,02542392	0,1252264	0	0	0	0	0
-0,01534235	0,5832444	-0,1778699	49,92353	3,262016	0,9443225	0	0	0,02317693	0,1294517	0	0	0	0	0
-0,01519242	0,5848053	-0,1764407	49,87405	3,316283	1,404224	0	0	0,01912059	0,1184055	0	0	0	0	0
-0,01536558	0,5867832	-0,1755016	49,76104	3,234781	1,984745	0	0	0,01250036	0,1061362	0	0	0	0	0
-0,01514555	0,5897064	-0,1745879	49,84317	3,083764	2,416555	0	0	0,006672081	0,1114563	0	0	0	0	0
-0,01505567	0,5930163	-0,1740307	49,90545	2,670117	2,755139	0	0	0	0,1145907	0,000850219	0	0	0	0
-0,01499266	0,5964215	-0,1737918	49,99872	2,027989	3,073349	0	0	0	0,1175121	0,0104536	0	0	0	0
-0,01471557	0,5997797	-0,1735282	50,12103	1,270245	3,256496	0	0	0	0,1101296	0,01986251	0	0	0	0
-0,01460797	0,6028816	-0,1732319	50,26318	0,659254	3,422642	0	0	0	0,1168007	0,02763388	0	0	0	0
-0,01427497	0,6057154	-0,1726329	50,33633	0,306676	3,584819	0	0	0	0,1100366	0,03278143	0	0	0	0
-0,01402548	0,6080704	-0,1716551	50,48508	0,1987687	3,715538	0	0	0	0,1170666	0,03516769	0	0	0	0
-0,01368508	0,6101096	-0,1701954	50,53284	0,2386079	3,725392	0	0	0	0,1127566	0,03486785	0	0	0	0
-0,01379784	0,6114395	-0,1684293	50,62138	0,3959481	3,68687	0	0	0	0,1305071	0,03290922	0	0	0	0
-0,0136725	0,6124492	-0,1661153	50,62291	0,5605823	3,600329	0	0	0	0,1450342	0,03039747	0	0	0	0
-0,01385898	0,6127862	-0,1635225	50,62567	0,7969665	3,477934	0	0	0	0,1366485	0,02680967	0	0	0	0
-0,01390411	0,6127533	-0,1603966	50,54875	1,097027	3,310605	0	0	0	0,1212721	0,02213578	0	0	0	0
-0,01424485	0,6122268	-0,157105	50,44756	1,509789	3,117521	0	0	0	0,100133	0,01607732	0	0	0	0
-0,01460704	0,611874	-0,1553891	50,42116	1,729478	2,972655	0	0	0	0,0830372	0,01243177	0	0	0	0
-0,01511115	0,6111551	-0,1519397	50,25303	2,088493	2,781074	0	0	0	0,04747848	0,006925806	0	0	0	0
-0,01557249	0,6106943	-0,1491548	50,12489	2,289041	2,521486	0	0	0	0,02273331	0,002324453	0	0	0	0
-0,01599487	0,6103916	-0,146761	50,04522	2,351985	2,110944	0	0,008153043	0,002410412	0	0	0	0	0	0
-0,01623852	0,6102838	-0,1445269	49,87141	2,334704	1,603366	0	0,03999033	0,007313374	0	0	0	0	0	0
-0,01576858	0,6106963	-0,1426151	49,85319	2,206971	1,192562	0	0,05818756	0,01014409	0	0	0	0	0	0
-0,01445007	0,6113352	-0,1411538	49,72302	2,110342	0,9528566	0	0,07735516	0,01157485	0	0	0	0	0	0
-0,01332859	0,6117112	-0,1398946	49,5899	2,091499	0,7536196	0	0,09584102	0,01337879	0	0	0	0	0	0
-0,01219795	0,6120644	-0,1385873	49,47218	2,221866	0,4343223	0	0,1026256	0,01787544	0	0	0	0	0	0
-0,01102321	0,6121229	-0,1371875	49,19832	2,353825	0,2490121	0	0,1238798	0,02104813	0	0	0	0	0	0
-0,009981606	0,6119607	-0,1357053	49,07121	2,381746	0,1517439	0	0,1366591	0,02230002	0	0	0	0	0	0
-0,008759117	0,6120813	-0,1341655	49,1488	2,374765	-0,1735149	0	0,1104947	0,0254828	0	0	0	0	0	0
-0,007456938	0,6123458	-0,1328481	49,46819	2,508403	-0,6312333	0	0,06003262	0,03139637	0	0	0	0	0	0
-0,005420568	0,6126433	-0,1317476	49,85955	2,814018	-0,7747434	0	0,001887938	0,03588761	0	0	0	0	0	0
-0,002828779	0,612915	-0,1306001	50,20668	3,165471	-0,4942004	0	0	0,03659671	0,06694456	0	0	0	0	0
-0,000314084	0,6131934	-0,1295111	50,42118	3,483502	0,000640019	0	0	0,03482862	0,103	0	0	0	0	0
0,001942158	0,6133428	-0,1285035	50,54584	3,560162	0,4087274	0	0	0,03151434	0,1384269	0	0	0	0	0
0,00384379	0,6138651	-0,1273731	50,54332	3,481766	0,5508224	0	0	0,02930943	0,1547364	0	0	0	0	0
0,005329681	0,6143839	-0,1263215	50,59555	3,214678	0,6434429	0	0	0,02571235	0,173385	0	0	0	0	0
0,006700162	0,6148667	-0,1253691	50,65776	2,901916	0,884104	0	0	0,02017812	0,2129925	0	0	0	0	0
0,007795373	0,6152794	-0,1246057	51,03201	2,632221	1,149469	0	0	0,01482752	0,273112	0	0	0	0	0
0,009019794	0,6157389	-0,1239782	51,40583	2,426709	1,456358	0	0	0,009703517	0,3096738	0	0	0	0	0
0,009961865	0,6160769	-0,1235335	51,87401	2,366882	1,66331	0	0	0,007035717	0,3290001	0	0	0	0	0
0,01109184	0,6164081	-0,1227673	52,21307	2,380962	1,726367	0	0	0,006545946	0,3234946	0	0	0	0	0
0,01196741	0,6165246	-0,121709	52,41028	2,522	1,678475	0	0	0,008435249	0,3064364	0	0	0	0	0
0,01247355	0,6164398	-0,1205023	52,4972	2,70321	1,636932	0	0	0,01066278	0,2925237	0	0	0	0	0
0,01319312	0,6162952	-0,1190839	52,44404	2,813471	1,671546	0	0	0,01141925	0,2726339	0	0	0	0	0
0,01348705	0,6159284	-0,1177267	52,38238	2,971304	1,623651	0	0	0,01347652	0,2666356	0	0	0	0	0
0,01322522	0,6152604	-0,1164973	52,36136	3,083537	1,561921	0	0	0,01521616	0,2583511	0	0	0	0	0
0,01277637	0,6144048	-0,1156026	52,28995	3,159551	1,726604	0	0	0,01432948	0,2447241	0	0	0	0	0
0,01221198	0,613172	-0,1149829	52,15734	3,050245	2,10777	0	0	0,009424746	0,1866206	0	0	0	0	0
0,01148607	0,6117392	-0,114722	52,04211	2,943769	2,414516	0	0	0,005292527	0,1299363	0	0	0	0	0
0,01084884	0,610083	-0,1147643	51,9311	2,707353	2,684457	0	0	0,000228962	0,06076851	0	0	0	0	0
0,01033528	0,6082185	-0,1151514	51,94136	2,436153	2,866243	0	0	0	0,0204198	0,004300897	0	0	0	0
0,01023526	0,607189	-0,1154787	51,99511	2,311474	2,880551	0	0	0	0,002100096	0,00569077	0	0	0	0
0,01064845	0,6040854	-0,1168024	52,19345	2,07602	2,616562	0	0	0	0,01047599	0,005405421	0	0	0	0
0,01148183	0,6019902	-0,1177383	52,40683	2,24903	1,999262	0	0	0,002497677	0,03801836	0	0	0	0	0
0,01288086	0,5997301	-0,1187282	52,49593	2,629642	1,288329	0	0	0,01341312	0,05280639	0	0	0	0	0
0,0142477	0,5975338	-0,1197064	52,57887	3,157743	0,3661557	0	0	0,02791587	0,06134016	0	0	0	0	0
0,01508068	0,5964804	-0,1201183	52,5207	3,365815	-0,0290077	0	0	0,03394822	0,06105814	0	0	0	0	0
0,01678255	0,5933271	-0,121508	52,36872	3,754256	-1,076694	0	0	0,0483095	0,05214071	0	0	0	0	0
0,01712758	0,5923438	-0,1219852	52,28308	3,791322	-1,314482	0	0	0,05105805	0,05368436	0	0	0	0	0
0,01755347	0,5908191	-0,1227681	52,10767	3,589898	-1,614603	0	0	0,05204501	0,04094096	0	0	0	0	0
0,01742641	0,5896819	-0,1232166	52,0094	3,100776	-1,820847	0	0	0,04921623	0,0209635	0	0	0	0	0
0,01661624	0,5884469	-0,1238144	51,98568	2,707824	-1,733141	0	0	0,04440965	0,008615239	0	0	0	0	0
0,01587178	0,5874412	-0,1241375	52,0066	2,41854	-1,541947	0	0,01365621	0,03960487	0	0	0	0	0	0
0,01511985	0,5865299	-0,1242847	52,06287	2,271749	-1,355664	0	0,03211424	0,03627413	0	0	0	0	0	0
0,01456261	0,5857345	-0,1242939	52,10353	2,309816	-1,16418	0	0,0356314	0,03473996	0	0	0	0	0	0
0,01420549	0,5850694	-0,1242751	52,13081	2,415904	-1,072489	0	0,04033329	0,03488392	0	0	0	0	0	0
0,01401447	0,5844274	-0,1243218	52,17032	2,472518	-1,038159	0	0,02770146	0,03510676	0	0	0	0	0	0
0,01392081	0,5838578	-0,1243318	52,1986	2,483469	-0,9525145	0	0,00510439	0,03435983	0	0	0	0	0	0
0,01392001	0,5832939	-0,1244424	52,19823	2,49302	-0,8657922	0	0	0,03358812	0,006089798	0	0	0	0	0
0,0140852	0,5827842	-0,1244996	52,19185	2,539759	-0,7555931	0	0	0,03295352	0,02794402	0	0	0	0	0
0,01420859	0,5822246	-0,1247917	52,18232	2,586605	-0,6114356	0	0	0,0319804	0,04050253	0	0	0	0	0
0,0143927	0,5819023	-0,1248048	52,19003	2,579965	-0,475013	0	0	0,03054978	0,0455705	0	0	0	0	0
0,01452597	0,58162	-0,1248939	52,22289	2,566886	-0,3347536	0	0	0,0290164	0,04827556	0	0	0	0	0
0,01456512	0,5813955	-0,1251268	52,27028	2,501305	-0,2094107	0	0	0,02710716	0,04780796	0	0	0	0	0
0,0144358	0,5813045	-0,1253798	52,31958	2,408988	-0,04365133	0	0	0,0245264	0,04957923	0	0	0	0	0
0,01416839	0,5813105	-0,1256293	52,38008	2,308201	0,1345749	0	0	0,02173626	0,05434027	0	0	0	0	0
0,01400329	0,5813348	-0,1259378	52,4295	2,252814	0,2478484	0	0	0,02004966	0,0561084	0	0	0	0	0
0,01372593	0,5812568	-0,1263181	52,53668	2,234494	0,2094689	0	0	0,02025025	0,0650084	0	0	0	0	0
0,01351869	0,5812994	-0,1266219	52,58776	2,219274	0,1714991	0	0	0,02047774	0,07065126	0	0	0	0	0
0,01348377	0,5813476	-0,1269363	52,61561	2,208019	0,1480034	0	0	0,02060016	0,0744108	0	0	0	0	0
0,01351196	0,5813953	-0,1272229	52,58431	2,225625	0,1354143	0	0	0,0209021	0,07184851	0	0	0	0	0
0,01368766	0,5815243	-0,1274377	52,55919	2,258712	0,05136	0	0	0,02207352	0,0673998	0	0	0	0	0
0,01383367	0,5815158	-0,1276859	52,45036	2,270874	-0,08129029	0	0	0,02352165	0,04919315	0	0	0	0	0
0,01412896	0,5816151	-0,1278299	52,29408	2,286113	-0,2267982	0	0	0,02512911	0,02344821	0	0	0	0	0
0,01429572	0,5817154	-0,1280188	52,15567	2,305599	-0,3869683	0	0,000483301	0,02692567	0	0	0	0	0	0
0,01439761	0,5818366	-0,128168	52,04791	2,289835	-0,5347964	0	0,0223093	0,02824632	0	0	0	0	0	0
0,01423642	0,5819344	-0,1283715	51,97372	2,252571	-0,6361372	0	0,03852962	0,02888708	0	0	0	0	0	0
0,01408453	0,5821159	-0,1284932	51,89031	2,208239	-0,6406173	0	0,06188757	0,02848856	0	0	0	0	0	0
0,01385901	0,5823069	-0,1285333	51,86755	2,169213	-0,6072055	0	0,07080416	0,02776418	0	0	0	0	0	0
0,0136527	0,5825518	-0,128458	51,82692	2,140721	-0,4779364	0	0,07801507	0,02618657	0	0	0	0	0	0
0,01328451	0,5827612	-0,1283095	51,82788	2,13445	-0,3059284	0	0,07248548	0,02440378	0	0	0	0	0	0
0,01279666	0,5828469	-0,1282142	51,85926	2,097302	-0,1354059	0	0,06437181	0,02232708	0	0	0	0	0	0
0,01251188	0,5830151	-0,1279786	51,85373	2,076148	0,03583833	0	0,05047607	0,02040309	0	0	0	0	0	0
0,01229347	0,5831065	-0,1277985	51,86377	2,088477	0,09643245	0	0,029787	0,01992045	0	0	0	0	0	0
0,01212556	0,5831991	-0,1276207	51,87564	2,123866	0,09016266	0	0,01146317	0,02033703	0	0	0	0	0	0
0,01202607	0,5832698	-0,1275162	51,86015	2,146638	0,05970337	0	0,000467675	0,02086934	0	0	0	0	0	0
0,01200669	0,5832975	-0,1274494	51,83521	2,160889	0,02190787	0	0	0,02138981	0,005207057	0	0	0	0	0
0,01201448	0,5832878	-0,1274187	51,7698	2,156139	-0,006151384	0	0	0,02162291	0,007038238	0	0	0	0	0
0,01202339	0,5832507	-0,1274239	51,72714	2,144469	-0,01201197	0	0	0,0215648	0,004475233	0	0	0	0	0
0,01211946	0,5831915	-0,1274027	51,60555	2,101489	0,001731136	0	0,005531776	0,02099757	0	0	0	0	0	0
0,01214228	0,5830851	-0,1273807	51,51613	2,051208	-0,01754239	0	0,01707355	0,02068751	0	0	0	0	0	0
0,01215034	0,5829527	-0,1273371	51,43289	2,033785	-0,06015731	0	0,03142787	0,02093942	0	0	0	0	0	0
0,01216633	0,5828193	-0,1272386	51,32941	2,020864	-0,07910768	0	0,04350101	0,02099971	0	0	0	0	0	0
0,01218597	0,582633	-0,1271423	51,21982	2,036364	-0,06189502	0	0,05752978	0,02098259	0	0	0	0	0	0
0,01208794	0,5824316	-0,1270834	51,08317	2,070765	-0,01850559	0	0,0745735	0,02089271	0	0	0	0	0	0
0,01217677	0,5821698	-0,1270723	51,01389	2,093368	0,001237663	0	0,0806054	0,0209213	0	0	0	0	0	0
0,01221625	0,5819123	-0,1270749	50,97417	2,130459	-0,000433105	0	0,08202458	0,02130892	0	0	0	0	0	0
0,01216197	0,581562	-0,1270882	51,00315	2,200842	-0,02531379	0	0,07024222	0,02226155	0	0	0	0	0	0
0,01226585	0,5813114	-0,127004	51,00801	2,27793	-0,02277021	0	0,06374401	0,023007	0	0	0	0	0	0
0,01237164	0,5811009	-0,1269373	51,00924	2,340954	0,02367284	0	0,04791029	0,02317281	0	0	0	0	0	0
0,01254712	0,5809398	-0,1268663	51,02592	2,38056	0,07285199	0	0,0342916	0,02307708	0	0	0	0	0	0
0,012726	0,580848	-0,1268353	51,02672	2,4403	0,1010357	0	0,02332694	0,02339264	0	0	0	0	0	0
0,01295901	0,5807629	-0,1268033	51,03884	2,523177	0,09086501	0	0,008727366	0,02432312	0	0	0	0	0	0
0,01320686	0,5806563	-0,1267783	51,06928	2,638774	0,04767599	0	0	0,02591098	0,008799808	0	0	0	0	0
0,01343161	0,5805658	-0,1268296	51,11349	2,753665	0,0233361	0	0	0,02730329	0,03140831	0	0	0	0	0
0,01371419	0,5805256	-0,1269074	51,17093	2,85151	-0,00988153	0	0	0,02861391	0,047261	0	0	0	0	0
0,01381075	0,580433	-0,1270499	51,19459	2,905477	-0,002719861	0	0	0,02908196	0,05547756	0	0	0	0	0
0,01408477	0,5804483	-0,1272125	51,28708	2,908825	-0,01115305	0	0	0,02919978	0,063048	0	0	0	0	0
0,01419822	0,5804243	-0,1274308	51,32241	2,871804	0,02556428	0	0	0,02846239	0,06670111	0	0	0	0	0
0,01425506	0,5804369	-0,127649	51,32727	2,799813	0,06238692	0	0	0,02737426	0,06678477	0	0	0	0	0
0,01434153	0,5804521	-0,1278905	51,31633	2,716395	0,07326493	0	0	0,02643129	0,06274653	0	0	0	0	0
0,01448244	0,5804943	-0,1280992	51,29927	2,66987	0,04990861	0	0	0,02619961	0,05990402	0	0	0	0	0
0,01467907	0,5805248	-0,1282575	51,28094	2,656299	0,01269984	0	0	0,026436	0,05574145	0	0	0	0	0
0,01494117	0,5805295	-0,1283665	51,29624	2,677417	-0,01536538	0	0	0,02692783	0,05385557	0	0	0	0	0
0,01525326	0,5805095	-0,1284191	51,31053	2,700569	-0,02565308	0	0	0,02726222	0,05039398	0	0	0	0	0
0,01557339	0,5804729	-0,1284248	51,33571	2,718606	-0,0185081	0	0	0,02737114	0,0467745	0	0	0	0	0
0,01585569	0,5803409	-0,1284242	51,33757	2,669539	0,02552105	0	0	0,02644018	0,04410892	0	0	0	0	0
0,01621956	0,5802646	-0,1283578	51,3312	2,652128	0,01976938	0	0	0,02632359	0,03201392	0	0	0	0	0
0,01643522	0,5801886	-0,1282061	51,35336	2,653397	0,04574214	0	0	0,02607655	0,03070613	0	0	0	0	0
0,01668234	0,5799876	-0,12801	51,39021	2,722337	0,07280713	0	0	0,0264953	0,03550453	0	0	0	0	0
0,01710097	0,5799109	-0,1275236	51,4413	2,771959	0,07036854	0	0	0,0270159	0,04341958	0	0	0	0	0
0,01715819	0,5795025	-0,1275959	51,51543	2,848665	0,0957258	0	0	0,02752939	0,05538257	0	0	0	0	0
0,01736314	0,5792931	-0,1273711	51,51501	2,82637	0,1221981	0	0	0,02704171	0,05757445	0	0	0	0	0
0,01752967	0,579071	-0,1271156	51,4881	2,801868	0,1816118	0	0	0,02620257	0,05285843	0	0	0	0	0
0,01758282	0,5788835	-0,1268626	51,48215	2,810421	0,2678035	0	0	0,02542618	0,05137654	0	0	0	0	0
0,01761521	0,5787168	-0,1266733	51,51214	2,81253	0,3295169	0	0	0,02483013	0,05259246	0	0	0	0	0
0,01759658	0,5785822	-0,126494	51,58022	2,8147	0,420067	0	0	0,02394633	0,06146551	0	0	0	0	0
0,01755798	0,5784501	-0,1263265	51,67867	2,821275	0,5248899	0	0	0,02296385	0,07515697	0	0	0	0	0
0,01753316	0,578347	-0,126139	51,77321	2,848182	0,6337904	0	0	0,02214392	0,0852011	0	0	0	0	0
0,01740033	0,5782477	-0,125908	51,80121	2,893504	0,7322304	0	0	0,02161274	0,08557762	0	0	0	0	0
0,01723946	0,5780736	-0,1257751	51,82449	2,946257	0,7830476	0	0	0,02163209	0,08327531	0	0	0	0	0
0,01733191	0,5780691	-0,12558	51,83588	2,978344	0,780663	0	0	0,02197681	0,07604398	0	0	0	0	0
0,01740192	0,5780164	-0,1255417	51,86241	2,97325	0,7670796	0	0	0,02206171	0,0790913	0	0	0	0	0
0,01740788	0,577917	-0,1255354	51,81921	3,00048	0,7478431	0	0	0,02252637	0,07721613	0	0	0	0	0
0,01747367	0,5778143	-0,1255483	51,77647	3,066289	0,6894848	0	0	0,02376804	0,07287596	0	0	0	0	0
0,01750303	0,5777468	-0,1255895	51,74865	3,101327	0,6454557	0	0	0,02455871	0,0658482	0	0	0	0	0
0,01759189	0,577662	-0,1256403	51,68675	3,138325	0,5193815	0	0	0,02618943	0,04936009	0	0	0	0	0
0,01771287	0,5775965	-0,1256953	51,6351	3,176385	0,3700192	0	0	0,02806365	0,03023639	0	0	0	0	0
0,01779457	0,5775717	-0,1257658	51,58455	3,2059	0,2675096	0	0	0,02938391	0,01209498	0	0	0	0	0
0,01782489	0,5775908	-0,1258147	51,5481	3,202176	0,2297146	0	0	0,02972461	0,003944973	0	0	0	0	0
0,0177573	0,5776271	-0,1259069	51,50991	3,160679	0,235502	0	0,003788056	0,02925177	0	0	0	0	0	0
0,01765282	0,5777458	-0,1260054	51,48013	3,070935	0,2426276	0	0,009553957	0,02828307	0	0	0	0	0	0
0,01756096	0,5778731	-0,1260872	51,45069	3,011089	0,2459817	0	0,01683609	0,02765107	0	0	0	0	0	0
0,01754278	0,5780292	-0,1261664	51,44974	3,005285	0,231407	0	0,0119697	0,02773878	0	0	0	0	0	0
0,01746836	0,57816	-0,1262802	51,42835	3,003582	0,2099589	0	0,009638651	0,02793623	0	0	0	0	0	0
0,01756264	0,5783249	-0,12644	51,46616	2,981176	0,1901587	0	0,0021849	0,02791017	0	0	0	0	0	0
0,01772508	0,5785555	-0,1266041	51,42719	2,948513	0,1898212	0	0	0,02758692	0,000236704	0	0	0	0	0
0,01762839	0,5786501	-0,1268169	51,47034	2,909548	0,1293484	0	0	0,02780199	0,01061727	0	0	0	0	0
0,01779688	0,5788671	-0,1269445	51,42659	2,881392	0,09589658	0	0	0,02785495	0,01081785	0	0	0	0	0
0,01784856	0,579035	-0,1270941	51,42278	2,876028	0,03265742	0	0	0,0284337	0,01404843	0	0	0	0	0
0,01791415	0,579192	-0,1272656	51,40947	2,867278	-0,02896071	0	0	0,02896239	0,01633074	0	0	0	0	0
0,0178428	0,579295	-0,1274638	51,35658	2,872689	-0,06270939	0	0	0,02935398	0,01327331	0	0	0	0	0
0,01792415	0,5794433	-0,1276548	51,35638	2,852619	-0,1210163	0	0	0,02973636	0,01599968	0	0	0	0	0
0,01814994	0,5796281	-0,1278466	51,41203	2,82715	-0,1922637	0	0	0,03019413	0,02182433	0	0	0	0	0
0,01826754	0,5797552	-0,127957	51,42833	2,816795	-0,2256745	0	0	0,03042469	0,02590892	0	0	0	0	0
0,0183317	0,5798601	-0,1280043	51,44422	2,835705	-0,2310378	0	0	0,03066743	0,02341408	0	0	0	0	0
0,01835377	0,5799029	-0,1280336	51,47266	2,859674	-0,2198724	0	0	0,03079546	0,03185454	0	0	0	0	0
0,0183384	0,5798911	-0,1280151	51,49953	2,870274	-0,1813445	0	0	0,03051618	0,03039301	0	0	0	0	0
0,01829278	0,5798314	-0,1280061	51,51129	2,865919	-0,1267398	0	0	0,02992659	0,03755596	0	0	0	0	0
0,01827731	0,5797073	-0,1280176	51,49298	2,844063	-0,06309048	0	0	0,02907154	0,03623394	0	0	0	0	0
0,01816068	0,5794886	-0,1280797	51,50887	2,851295	-0,04535549	0	0	0,0289665	0,03998686	0	0	0	0	0
0,01824417	0,5792946	-0,1281274	51,48786	2,867274	-0,04568668	0	0	0,02912961	0,04396978	0	0	0	0	0
0,01849886	0,5791111	-0,1281004	51,4345	2,891025	-0,06740534	0	0	0,0295843	0,03761026	0	0	0	0	0
0,01855673	0,5788819	-0,1281453	51,46367	2,961982	-0,1386353	0	0	0,03100617	0,03442929	0	0	0	0	0
0,01871359	0,5787203	-0,1281553	51,45746	3,00956	-0,1669981	0	0	0,03176558	0,03192063	0	0	0	0	0
0,01886158	0,5786065	-0,1281716	51,44192	3,028109	-0,19131	0	0	0,03219419	0,02809196	0	0	0	0	0
0,01897566	0,5785419	-0,1281555	51,41485	3,052056	-0,2115516	0	0	0,03263608	0,02146765	0	0	0	0	0
0,01909115	0,5785332	-0,1281342	51,39424	3,074055	-0,2388732	0	0	0,03312928	0,01571665	0	0	0	0	0
0,01915433	0,5785789	-0,1281299	51,39548	3,083516	-0,2660713	0	0	0,03349587	0,01427722	0	0	0	0	0
0,01916093	0,5786494	-0,128112	51,43123	3,077486	-0,3076749	0	0	0,03385161	0,0202883	0	0	0	0	0
0,01896067	0,578683	-0,1281571	51,43517	3,084272	-0,2843576	0	0	0,0336863	0,01915517	0	0	0	0	0
0,01909805	0,5788774	-0,1281034	51,4599	3,032853	-0,2272666	0	0	0,0326012	0,02470092	0	0	0	0	0
0,01883339	0,5789011	-0,1281416	51,49225	2,979826	-0,1767733	0	0	0,03156599	0,03496014	0	0	0	0	0
0,01873421	0,5789561	-0,1280923	51,46529	2,927206	-0,1139069	0	0	0,03041113	0,02832754	0	0	0	0	0
0,01870113	0,5790126	-0,1280232	51,43821	2,920475	-0,106865	0	0	0,0302734	0,02582623	0	0	0	0	0
0,01879054	0,5790485	-0,1279476	51,43275	2,957941	-0,1487741	0	0	0,03106715	0,0269912	0	0	0	0	0
0,01891242	0,579036	-0,127881	51,43783	3,015049	-0,1954097	0	0	0,03210459	0,03095396	0	0	0	0	0
0,01902693	0,5789428	-0,1278794	51,45818	3,061401	-0,2351569	0	0	0,03296558	0,035935	0	0	0	0	0
0,01909161	0,5789859	-0,1278251	51,47148	3,073389	-0,2389998	0	0	0,03312388	0,0374639	0	0	0	0	0
0,01921165	0,5789188	-0,1277862	51,50602	3,097589	-0,251004	0	0	0,03348593	0,03744029	0	0	0	0	0
0,01930726	0,5788316	-0,1277519	51,53984	3,127135	-0,2650081	0	0	0,03392143	0,04118182	0	0	0	0	0
0,01936833	0,5787427	-0,1277255	51,54983	3,141547	-0,2736957	0	0	0,03415242	0,03946935	0	0	0	0	0
0,01937947	0,5786217	-0,1276734	51,5556	3,166407	-0,2809493	0	0	0,03447356	0,03645664	0	0	0	0	0
0,01937797	0,578474	-0,1276419	51,54129	3,17964	-0,2544471	0	0	0,03434087	0,03837285	0	0	0	0	0
0,01939275	0,5783326	-0,1275997	51,54408	3,186875	-0,2219357	0	0	0,0340881	0,04235322	0	0	0	0	0
0,01942524	0,5781938	-0,1275777	51,54867	3,1947	-0,1885489	0	0	0,03383249	0,04397155	0	0	0	0	0
0,01960808	0,5780974	-0,1275793	51,51566	3,190868	-0,132365	0	0	0,03323233	0,03992385	0	0	0	0	0
0,01958101	0,5778901	-0,1276864	51,55146	3,19779	-0,1402789	0	0	0,03338069	0,04176832	0	0	0	0	0
0,01964745	0,5777261	-0,1277794	51,53281	3,240625	-0,1467146	0	0	0,0338734	0,03829902	0	0	0	0	0
0,01981516	0,5775953	-0,127881	51,54947	3,279086	-0,187161	0	0	0,03466246	0,03613316	0	0	0	0	0
0,01998499	0,5775036	-0,1279998	51,55564	3,299699	-0,19296	0	0	0,03492659	0,0329639	0	0	0	0	0
0,02016424	0,5774572	-0,128113	51,55638	3,299445	-0,2069925	0	0	0,03506438	0,03171051	0	0	0	0	0
0,0204362	0,5774994	-0,1281797	51,60891	3,283743	-0,2248162	0	0	0,03508559	0,0369865	0	0	0	0	0
0,02060699	0,57754	-0,1282422	51,63766	3,291741	-0,2471146	0	0	0,03538856	0,04200982	0	0	0	0	0
0,02073373	0,5775881	-0,1283298	51,66692	3,308623	-0,2550028	0	0	0,03563626	0,04527754	0	0	0	0	0
0,02094869	0,5776605	-0,1283728	51,67377	3,308594	-0,2273339	0	0	0,03535929	0,04582539	0	0	0	0	0
0,02092437	0,5776367	-0,1285368	51,75309	3,304257	-0,2476589	0	0	0,03551916	0,05905851	0	0	0	0	0
0,02098679	0,5776729	-0,1286577	51,79098	3,298731	-0,2667957	0	0	0,03565527	0,05906182	0	0	0	0	0
0,02104767	0,57771	-0,1287608	51,80598	3,275283	-0,3077572	0	0	0,0358304	0,06245519	0	0	0	0	0
0,02106543	0,5777517	-0,1288203	51,79843	3,274799	-0,3249099	0	0	0,03599709	0,05937432	0	0	0	0	0
0,02106651	0,5778012	-0,128863	51,77713	3,267136	-0,320868	0	0	0,03588004	0,05604085	0	0	0	0	0
0,02105349	0,5778258	-0,1289062	51,77216	3,243214	-0,3043282	0	0	0,03547543	0,05528313	0	0	0	0	0
0,02106704	0,5778114	-0,1289875	51,78405	3,210199	-0,286849	0	0	0,03497048	0,05025031	0	0	0	0	0
0,02107414	0,5778134	-0,1290306	51,78659	3,210344	-0,2882116	0	0	0,03498555	0,04709284	0	0	0	0	0
0,0211236	0,5777409	-0,1291336	51,78967	3,194013	-0,3112202	0	0	0,03505234	0,04355782	0	0	0	0	0
0,02112916	0,5777515	-0,1290719	51,7681	3,198128	-0,3155659	0	0	0,03513694	0,04014518	0	0	0	0	0
0,02114867	0,5777203	-0,1290122	51,72157	3,205086	-0,32273	0	0	0,03527816	0,02504106	0	0	0	0	0
0,02116221	0,5776539	-0,1289503	51,70473	3,205727	-0,3293732	0	0	0,035351	0,01841444	0	0	0	0	0
0,02118999	0,577594	-0,1289184	51,70761	3,222986	-0,3321452	0	0	0,03555131	0,01710408	0	0	0	0	0
0,02118078	0,5775467	-0,1288512	51,7389	3,245542	-0,315904	0	0	0,03561446	0,02215345	0	0	0	0	0
0,02111359	0,5775102	-0,1287478	51,75068	3,258148	-0,2704146	0	0	0,03528563	0,02670367	0	0	0	0	0
0,0210016	0,5775228	-0,128645	51,73757	3,269888	-0,2001679	0	0	0,03470056	0,02654621	0	0	0	0	0
0,02098639	0,577575	-0,1285249	51,68713	3,251582	-0,1339445	0	0	0,03385527	0,01954645	0	0	0	0	0
0,02091633	0,5776346	-0,1284684	51,66625	3,239624	-0,1167203	0	0	0,03356344	0,01678891	0	0	0	0	0
0,02084233	0,577675	-0,1284354	51,65964	3,243864	-0,1215059	0	0	0,0336537	0,01562028	0	0	0	0	0
0,02065111	0,5776721	-0,1284318	51,70657	3,234773	-0,1417252	0	0	0,03376498	0,02354631	0	0	0	0	0
0,02057627	0,5777287	-0,1284003	51,71302	3,211101	-0,1311199	0	0	0,03342221	0,02977397	0	0	0	0	0
0,02050271	0,5777256	-0,1283473	51,72199	3,202477	-0,1116163	0	0	0,03314093	0,03297952	0	0	0	0	0
0,02043387	0,5777036	-0,1282446	51,70503	3,216247	-0,08889146	0	0	0,03305138	0,03096365	0	0	0	0	0
0,02039308	0,5776507	-0,1281107	51,69805	3,23054	-0,08870712	0	0	0,03319247	0,02651615	0	0	0	0	0
0,02034266	0,5775546	-0,1279813	51,7154	3,268201	-0,08667657	0	0	0,03354878	0,02758232	0	0	0	0	0
0,02031427	0,5774204	-0,1278576	51,7515	3,295338	-0,0816536	0	0	0,03376992	0,03380768	0	0	0	0	0
0,02027643	0,5772686	-0,1277821	51,7919	3,304059	-0,1135235	0	0	0,03417583	0,04447735	0	0	0	0	0
0,02017763	0,5771015	-0,1277128	51,78558	3,326999	-0,1592787	0	0	0,03486278	0,04599694	0	0	0	0	0
0,02015771	0,5769588	-0,1276327	51,77958	3,343063	-0,2147334	0	0	0,03557796	0,04567536	0	0	0	0	0
0,02014528	0,5768669	-0,1275371	51,73531	3,35186	-0,2636051	0	0	0,03615465	0,03433179	0	0	0	0	0
0,02013526	0,5768311	-0,1274039	51,68795	3,336225	-0,2919983	0	0	0,03628223	0,02743385	0	0	0	0	0
0,02023876	0,5768675	-0,1272554	51,62304	3,31869	-0,2753507	0	0	0,0359404	0,01855948	0	0	0	0	0
0,02029851	0,5768872	-0,1271479	51,62513	3,303868	-0,260751	0	0	0,03564619	0,02084379	0	0	0	0	0
0,0202523	0,576922	-0,1270412	51,61706	3,30189	-0,2550164	0	0	0,03556906	0,02074951	0	0	0	0	0
0,02013407	0,57695	-0,1269358	51,59618	3,303642	-0,2114153	0	0	0,03515057	0,01661535	0	0	0	0	0
0,02001666	0,57695	-0,1269193	51,60161	3,298137	-0,161563	0	0	0,03459699	0,01337978	0	0	0	0	0
0,0198123	0,5769248	-0,1269419	51,66276	3,2724	-0,1301367	0	0	0,03402536	0,01592553	0	0	0	0	0
0,01971753	0,5769257	-0,1269697	51,68159	3,266633	-0,08931738	0	0	0,0335595	0,01929454	0	0	0	0	0
0,01968245	0,5769346	-0,1270031	51,69255	3,26729	-0,08157358	0	0	0,03348863	0,02141377	0	0	0	0	0
0,01965334	0,5769511	-0,127038	51,68779	3,272225	-0,0983634	0	0	0,03370588	0,0260358	0	0	0	0	0
0,01966126	0,5769885	-0,1271005	51,66873	3,258382	-0,1215036	0	0	0,03379885	0,02906165	0	0	0	0	0
0,01963029	0,5770317	-0,1271766	51,63755	3,238834	-0,1180672	0	0	0,03356901	0,03294899	0	0	0	0	0
0,01959391	0,5770691	-0,1272507	51,62807	3,20915	-0,1144726	0	0	0,03323623	0,03129879	0	0	0	0	0
0,01969567	0,5771816	-0,1272773	51,60157	3,19128	-0,08859558	0	0	0,03279875	0,02916786	0	0	0	0	0
0,01957589	0,5772097	-0,1273394	51,6749	3,186326	-0,1074412	0	0	0,03293767	0,04023569	0	0	0	0	0
0,01952827	0,5772772	-0,1273396	51,72385	3,190734	-0,07398558	0	0	0,0326472	0,04583649	0	0	0	0	0
0,01949181	0,5773184	-0,1273659	51,77016	3,183645	-0,02604351	0	0	0,03209689	0,04446387	0	0	0	0	0
0,01939894	0,5773683	-0,1273712	51,78916	3,160311	0,03153566	0	0	0,03128775	0,044826	0	0	0	0	0
0,01932572	0,5774058	-0,1273982	51,78439	3,126688	0,0459832	0	0	0,03080705	0,04274781	0	0	0	0	0
0,01926032	0,577455	-0,1274103	51,76287	3,10662	0,02997601	0	0	0,03076644	0,04037565	0	0	0	0	0
0,01925588	0,5774823	-0,1274205	51,75179	3,096601	0,0114943	0	0	0,03085107	0,04104783	0	0	0	0	0
0,01926337	0,5775284	-0,127462	51,74247	3,094874	-0,01431109	0	0	0,03109185	0,04339502	0	0	0	0	0
0,01922438	0,5775845	-0,127495	51,73209	3,088265	-0,03935121	0	0	0,03127616	0,04297187	0	0	0	0	0
0,0192032	0,5776514	-0,1275735	51,73478	3,067263	-0,06544464	0	0	0,03132707	0,04600326	0	0	0	0	0
0,01924256	0,5777528	-0,1276493	51,7377	3,028515	-0,09979618	0	0	0,03128311	0,03682288	0	0	0	0	0
0,01921326	0,5778355	-0,1277105	51,70777	2,996803	-0,1192959	0	0	0,03116098	0,02684468	0	0	0	0	0
0,01916521	0,5779185	-0,1277642	51,66894	2,964865	-0,1164911	0	0	0,03081356	0,01633792	0	0	0	0	0
0,01913187	0,5779921	-0,1278105	51,65084	2,934242	-0,1169062	0	0	0,03051148	0,01157488	0	0	0	0	0
0,0191132	0,5780593	-0,1278605	51,65755	2,92269	-0,09797765	0	0	0,03020668	0,01302697	0	0	0	0	0
0,019141	0,5781277	-0,127934	51,69337	2,922123	-0,08191978	0	0	0,03004043	0,02006206	0	0	0	0	0
0,01916091	0,5781692	-0,1280248	51,74411	2,920796	-0,07006946	0	0	0,02990866	0,02758625	0	0	0	0	0
0,01919307	0,5782143	-0,1281171	51,77772	2,895297	-0,04194777	0	0	0,02937244	0,03276367	0	0	0	0	0
0,01925128	0,5782773	-0,1281286	51,73743	2,869363	0,0165269	0	0	0,02852836	0,0294993	0	0	0	0	0
0,01912298	0,5782615	-0,1281885	51,74026	2,872075	0,0305638	0	0	0,02841511	0,02968419	0	0	0	0	0
0,01928474	0,5783467	-0,1281392	51,68973	2,881309	0,07985178	0	0	0,02801457	0,02385478	0	0	0	0	0
0,01937048	0,5783391	-0,1281685	51,71049	2,877737	0,06886134	0	0	0,02808875	0,02979328	0	0	0	0	0
0,01947035	0,5783486	-0,1281779	51,75635	2,896676	0,04559682	0	0	0,02851079	0,03991144	0	0	0	0	0
0,01954111	0,5783304	-0,1281665	51,79367	2,900727	0,04581844	0	0	0,02854909	0,04660593	0	0	0	0	0
0,0195453	0,5782968	-0,1281157	51,79353	2,888343	0,05525811	0	0	0,02833085	0,04575296	0	0	0	0	0
0,01938447	0,5782132	-0,1280329	51,78867	2,875624	0,04614159	0	0	0,02829482	0,04065394	0	0	0	0	0
0,0192915	0,5781391	-0,1278803	51,74072	2,878349	0,05106621	0	0	0,02827282	0,02888674	0	0	0	0	0
0,01921353	0,5780305	-0,1277038	51,73783	2,883882	0,06070837	0	0	0,02823174	0,02465954	0	0	0	0	0
0,01918834	0,5779178	-0,1275389	51,7844	2,893818	0,07865482	0	0	0,02815163	0,03536208	0	0	0	0	0
0,01909678	0,5777447	-0,1274012	51,826	2,935371	0,111959	0	0	0,02823412	0,04076198	0	0	0	0	0
0,01914968	0,577611	-0,1272431	51,90484	2,999718	0,1513724	0	0	0,02848346	0,05732415	0	0	0	0	0
0,01908571	0,5774371	-0,1271279	51,95688	3,054629	0,2222451	0	0	0,02832384	0,06233518	0	0	0	0	0
0,01898308	0,5772986	-0,1270248	51,99689	3,053355	0,2965975	0	0	0,02756758	0,06236468	0	0	0	0	0
0,01887285	0,577149	-0,1269528	52,0089	3,016844	0,3719995	0	0	0,02644844	0,05971495	0	0	0	0	0
0,01879726	0,5770166	-0,1269368	52,02482	3,010158	0,418433	0	0	0,02591725	0,06204052	0	0	0	0	0
0,01876999	0,5768911	-0,1269651	52,04396	3,041919	0,4326493	0	0	0,0260927	0,06538008	0	0	0	0	0
0,01878006	0,5768272	-0,1269949	52,07966	3,091984	0,4350343	0	0	0,02656949	0,07594331	0	0	0	0	0
0,01880355	0,5768252	-0,1270508	52,13695	3,106339	0,4293709	0	0	0,02676968	0,08325144	0	0	0	0	0
0,01877718	0,5768709	-0,1270814	52,22556	3,047492	0,4285805	0	0	0,02618911	0,08769961	0	0	0	0	0
0,01880094	0,5769706	-0,1269937	52,28093	2,966916	0,4830539	0	0	0,02483862	0,08909111	0	0	0	0	0
0,01856674	0,5769999	-0,1268875	52,40198	2,941335	0,5501053	0	0	0,0239123	0,09457142	0	0	0	0	0
0,0185187	0,5771137	-0,1266988	52,58839	2,958612	0,6617522	0	0	0,0229686	0,1119849	0	0	0	0	0
0,01846314	0,577226	-0,1265927	52,85694	3,003083	0,8029367	0	0	0,02200147	0,1412656	0	0	0	0	0
0,01833686	0,5773769	-0,1265255	53,18103	2,994757	0,9436138	0	0	0,02051143	0,1800391	0	0	0	0	0
0,0182294	0,5774472	-0,1265098	53,33691	2,985153	1,026381	0,01777778	0	0,0373655	0,2153443	0	0	0	0	0
0,01794928	0,5777101	-0,1264695	53,70538	2,90969	1,298192	0,03111111	0	0,04722609	0,2725594	0,01499613	50	53	71	51
0,01774817	0,5779328	-0,1264834	53,84397	2,866042	1,432045	0,03111111	0	0,0454511	0,2858091	0,01677113	50	53	72	51
0,01749226	0,5781137	-0,1265913	53,87895	2,790016	1,479107	0,03111111	0	0,0442202	0,2828416	0,01800202	50	53	72	51
0,01735935	0,5781961	-0,1266857	53,84206	2,754762	1,490046	0,03111111	0	0,04375827	0,2675389	0,01846396	50	53	71	51
0,01713018	0,5783309	-0,1268942	53,74266	2,658758	1,469933	0,04	0	0,05188824	0,2566952	0,02811176	50	54	70	52
0,0169981	0,5784268	-0,1271345	53,64872	2,574829	1,385534	0,04888889	0	0,06078184	0,2381013	0,03699594	50	54	69	52
0,01700307	0,578482	-0,1273268	53,62602	2,536681	1,285649	0,05333333	0	0,06584366	0,2160718	0,04082301	50	55	67	53
0,01708944	0,5784003	-0,1274883	53,65336	2,495089	1,2505	0,05333333	0	0,06577922	0,18636	0,04088744	50	55	64	53
0,01728781	0,5784634	-0,1275177	53,8162	2,583255	1,122609	0,05333333	0	0,0679398	0,1666127	0,03872687	50	55	63	53
0,01748328	0,5784706	-0,1275055	53,99498	2,650568	1,031247	0,05333333	0	0,06952654	0,1691197	0,03714013	50	55	63	52
0,01762228	0,5784225	-0,1275528	54,14766	2,690618	0,9305692	0,05333333	0	0,07093382	0,1426191	0,03573285	50	55	61	52
0,01771096	0,5784242	-0,127601	54,25307	2,716557	0,8658229	0,05333333	0	0,07184067	0,138249	0,03482599	50	55	61	52
0,01782086	0,5784217	-0,1275984	54,32656	2,720814	0,8324638	0,05777778	0	0,07666127	0,147024	0,03889428	50	56	61	53
0,01790158	0,5785864	-0,12729	54,25582	2,716787	0,6639946	0,05777778	0	0,07830571	0,1412364	0,03724985	50	56	61	52
0,01784271	0,5786527	-0,1274519	54,2459	2,74425	0,5062207	0,05777778	0	0,08015807	0,1506701	0,03539749	50	56	62	52
0,01781905	0,5788239	-0,1280772	54,40064	2,628716	0,4076054	0,05777778	0	0,07998888	0,1783711	0,03556668	50	56	64	52
0,01784549	0,5788278	-0,1283533	54,44206	2,631083	0,3453803	0,05777778	0	0,0806348	0,1854666	0,03492075	50	56	64	52
0,01791511	0,5788963	-0,1284063	54,46198	2,597164	0,3367988	0,05777778	0	0,08038144	0,1841517	0,03517412	50	56	64	52
0,01780237	0,578968	-0,1286952	54,54202	2,5168	0,3331336	0,07555556	0	0,09739222	0,1911534	0,05371889	50	57	65	54
0,01803361	0,5789472	-0,1287975	54,53927	2,514123	0,339121	0,07555556	0	0,09730557	0,1694025	0,05380554	50	57	63	54
0,01809224	0,5789313	-0,1285959	54,43874	2,55087	0,3233261	0,07555556	0,01188447	0,097831	0,1392266	0,05328012	50	57	61	54
0,01816416	0,5788599	-0,1282158	54,39587	2,582161	0,2962625	0,07555556	0,02963543	0,09841454	0,1214757	0,05269657	52	57	59	54
0,01836778	0,5788581	-0,1284603	54,37517	2,603518	0,1993824	0,08888889	0,05502662	0,1129302	0,1227512	0,06484754	54	59	59	55
0,01837994	0,5788031	-0,1287481	54,41124	2,633874	0,06736334	0,09777778	0,05211569	0,1234429	0,1434399	0,07211266	54	59	61	55
0,01845838	0,5788524	-0,1290223	54,43659	2,627093	-0,06469052	0,1022222	0,05371509	0,12914	0,1507293	0,07530439	54	60	62	56
0,01849472	0,5789706	-0,1292459	54,43836	2,544974	-0,1048429	0,1066667	0,07773946	0,1331648	0,1355939	0,0801685	56	60	60	56
0,01851124	0,5786984	-0,1295395	54,48111	2,645858	-0,08232218	0,1022222	0,07190029	0,129504	0,1325442	0,07494041	55	60	60	55
0,01851198	0,5790577	-0,1294542	54,44018	2,581742	-0,2059019	0,1022222	0,08108039	0,1300987	0,123364	0,07434577	56	60	59	55
0,01840525	0,5792905	-0,12982	54,48234	2,525451	-0,1868916	0,1022222	0,08599878	0,1293456	0,1184457	0,07509879	56	60	59	56
0,01819343	0,5794643	-0,1300078	54,53733	2,488981	-0,2435328	0,1022222	0,0800012	0,1295474	0,1244432	0,07489708	56	60	59	55
0,01833718	0,5796119	-0,1302707	54,44478	2,481024	-0,243573	0,1022222	0,07912216	0,1294682	0,1253223	0,07497625	56	60	60	55
0,01835548	0,5799302	-0,130316	54,64531	2,415354	-0,2232956	0,1066667	0,05481298	0,1330532	0,1585204	0,08028017	54	60	62	56
0,01830246	0,5799935	-0,1302492	54,55639	2,458215	-0,3069381	0,1066667	0,06340788	0,1343182	0,1499255	0,07901514	55	60	61	56
0,01807541	0,5802658	-0,1299262	54,71013	2,210802	-0,5314862	0,1111111	0,05845087	0,138534	0,1637714	0,08368823	54	61	63	56
0,01830407	0,5800322	-0,1302843	54,40747	2,437992	-0,3839481	0,1111111	0,09406477	0,1393305	0,1281575	0,08289171	57	61	60	56
0,01821358	0,580184	-0,130346	54,44127	2,399667	-0,390451	0,1155556	0,09511366	0,1434567	0,1359974	0,08765437	57	61	60	57
0,01831762	0,5802977	-0,1305611	54,47189	2,304524	-0,3255014	0,1155556	0,09687266	0,1418558	0,1342385	0,0892553	57	61	60	57
0,0184266	0,5801484	-0,130398	54,42496	2,427042	-0,3617713	0,1244444	0,1056173	0,1523326	0,1432716	0,09655631	58	62	61	57
0,01804372	0,5801615	-0,1308265	54,63149	2,313565	-0,5246618	0,1244444	0,08865735	0,1528267	0,1602315	0,09606218	57	62	62	57
0,0182569	0,580372	-0,1309107	54,55542	2,389359	-0,4755874	0,1333333	0,112024	0,1619828	0,1546427	0,1046839	58	62	62	58
0,01821614	0,5803507	-0,1312343	54,58694	2,35583	-0,3583165	0,1333333	0,09629967	0,1604748	0,170367	0,1061919	57	62	63	58
0,01832437	0,5803265	-0,1312375	54,53378	2,431458	-0,4931236	0,1333333	0,1273341	0,1625791	0,1393326	0,1040875	60	63	61	58
0,01802672	0,5806144	-0,1307593	54,66806	2,20316	-0,5001905	0,1377778	0,1073471	0,1648113	0,1682085	0,1107443	58	63	63	58
0,01802292	0,5807645	-0,1308368	54,66477	2,161239	-0,4835031	0,1377778	0,1264437	0,1642252	0,1491119	0,1113304	60	63	61	58
0,01800081	0,5808641	-0,1309525	54,63077	2,152627	-0,5093932	0,1377778	0,09454938	0,164398	0,1810062	0,1111576	57	63	64	58
0,01815687	0,5809776	-0,131665	54,48656	2,244526	-0,4081355	0,1377778	0,1139798	0,1643044	0,1615758	0,1112512	59	63	62	58
0,01820616	0,5810545	-0,1317381	54,49664	2,218584	-0,3829858	0,1377778	0,1164514	0,1637935	0,1591042	0,1117621	59	63	62	58
0,0181754	0,5811227	-0,131891	54,49381	2,177241	-0,2636546	0,1377778	0,1103802	0,1621867	0,1651753	0,1133688	58	62	63	59
0,01813996	0,5811558	-0,1319305	54,5262	1,924712	-0,5146791	0,1422222	0,1407561	0,1666161	0,1436883	0,1178283	61	63	61	59
0,01792922	0,5815547	-0,1319749	54,54017	2,118028	-0,318885	0,1422222	0,1260609	0,1665914	0,1583835	0,1178531	60	63	62	59
0,01778801	0,5816802	-0,1317532	54,50888	2,132388	-0,3421272	0,1377778	0,1292415	0,1625229	0,1463141	0,1130326	60	63	61	59
0,01768796	0,5816771	-0,1319809	54,53988	1,857063	-0,3874183	0,1466667	0,1312387	0,1691115	0,1620946	0,1242218	60	63	62	59
0,01781515	0,5820456	-0,1319264	54,53841	2,021381	-0,1977183	0,16	0,1573218	0,182191	0,1626782	0,137809	62	64	63	61
0,01782547	0,5822413	-0,1317474	54,51686	1,970285	-0,2499855	0,1688889	0,1694347	0,1910916	0,168343	0,1466862	63	65	63	61
0,01763629	0,5821843	-0,1320472	54,52224	1,976801	-0,2716648	0,1822222	0,1781951	0,2047069	0,1862493	0,1597376	64	66	64	62
0,01786335	0,5823716	-0,1316373	54,44687	1,975506	-0,218951	0,1866667	0,1738637	0,2086112	0,1994697	0,1647221	63	66	65	63
0,01752844	0,5820547	-0,1317997	54,57835	1,964633	-0,2343048	0,1866667	0,1595581	0,208656	0,2137752	0,1646773	62	66	67	63
0,01772307	0,5821698	-0,1319185	54,51617	2,006423	-0,05418218	0,1866667	0,1644609	0,2072727	0,2088725	0,1660606	63	66	66	63
0,01778888	0,582075	-0,1318064	54,59695	2,069667	-0,04605224	0,1866667	0,1579408	0,2078239	0,2153925	0,1655095	62	66	67	63
0,01781649	0,5821488	-0,1318335	54,58984	2,079718	-0,0520094	0,1866667	0,16043	0,2079839	0,2129034	0,1653494	62	66	67	63
0,01770919	0,5823333	-0,131753	54,52061	1,994174	-0,08091454	0,1866667	0,1661269	0,2074175	0,2072064	0,1659158	63	66	66	63
0,0179918	0,5822169	-0,1315117	54,62319	1,985421	0,08427743	0,1866667	0,1559721	0,2056781	0,2173612	0,1676552	62	66	67	63
0,01786086	0,5823776	-0,1319725	54,5974	2,031084	0,01448426	0,1866667	0,1591321	0,2068327	0,2142012	0,1665007	62	66	67	63
0,01787296	0,582561	-0,131867	54,66451	2,01829	0,03427363	0,1866667	0,1484229	0,2065068	0,2249105	0,1668265	61	66	67	63
0,01786737	0,5826277	-0,1318478	54,66636	2,002327	0,07998293	0,1866667	0,1485493	0,2058901	0,224784	0,1674432	61	66	67	63
0,01744705	0,5827483	-0,1316146	54,84764	1,89507	-0,07793637	0,1866667	0,1204028	0,2063967	0,2529306	0,1669366	59	66	70	63
0,01745497	0,5830966	-0,1320718	54,56851	1,867609	-0,004595064	0,1866667	0,1692171	0,2053887	0,2041162	0,1679446	63	66	66	63
0,01744756	0,5829147	-0,1323679	54,62257	1,983499	0,1398704	0,1866667	0,152666	0,205103	0,2206674	0,1682304	62	66	67	63
0,01737268	0,5831118	-0,1326432	54,64118	1,887691	0,1089281	0,1866667	0,1613927	0,2044543	0,2119406	0,168879	62	66	66	63
0,01733131	0,5832413	-0,1327595	54,64607	1,876649	0,08995914	0,1866667	0,1602527	0,2045336	0,2130806	0,1687998	62	66	67	63
0,01764781	0,5833724	-0,1324082	54,56821	1,916498	0,03903527	0,1866667	0,1613994	0,2054413	0,211934	0,167892	62	66	66	63
0,01743988	0,5834633	-0,1328394	54,69036	1,845695	0,08892328	0,1866667	0,1592597	0,2042344	0,2140736	0,169099	62	66	67	63
0,01748829	0,5835233	-0,1329053	54,57779	1,85769	0,1433158	0,1911111	0,173454	0,2082549	0,2087683	0,1739674	63	66	66	63
0,01723326	0,5839584	-0,1324665	54,45839	1,793595	-0,1058307	0,1911111	0,1989678	0,2101054	0,1832545	0,1721169	65	66	64	63
0,01749599	0,5835688	-0,1323736	54,68826	1,925748	0,2636202	0,1911111	0,1665894	0,2077324	0,2156328	0,1744898	63	66	67	63
0,01699853	0,5838292	-0,1331226	54,63963	1,804292	0,09366224	0,1955556	0,2015369	0,2126618	0,1895742	0,1784493	66	67	65	64
0,01732436	0,5837545	-0,1325399	54,59843	1,362463	-0,330757	0,1955556	0,1816483	0,2124878	0,2094629	0,1786233	64	66	66	64
0,01688069	0,5842439	-0,1324474	54,85543	1,718917	-0,02216805	0,2	0,1550888	0,2174108	0,2449112	0,1825892	62	67	69	64
0,01673095	0,584183	-0,1324	54,7501	1,634249	0,04359372	0,2	0,1701515	0,2159066	0,2298485	0,1840934	63	67	68	64
0,01673481	0,5842304	-0,1326681	54,88946	1,615551	0,1288557	0,2044444	0,1577933	0,2193114	0,2510956	0,1895775	62	67	70	65
0,0169658	0,58401	-0,1327145	54,6803	1,854491	0,238255	0,2044444	0,1700661	0,2206068	0,2388228	0,1882821	63	67	69	65
0,01690316	0,5842383	-0,1326664	54,69656	1,729687	0,2143431	0,2222222	0,2020381	0,2373757	0,2424064	0,2070688	66	68	69	66
0,01674435	0,5840821	-0,1324028	54,52665	1,79026	0,2305015	0,2311111	0,2170412	0,2467087	0,245181	0,2155135	67	69	69	67
0,01643184	0,5839736	-0,1323473	54,68668	1,654808	0,1200401	0,24	0,1948576	0,2553477	0,2851424	0,2246523	65	70	72	67
0,01657643	0,583621	-0,1327142	54,43639	1,804249	0,2575891	0,2533333	0,2629383	0,2687999	0,2437284	0,2378667	71	71	69	69
0,01669123	0,5838706	-0,1324299	54,60295	1,816028	0,1886462	0,2577778	0,2421329	0,2740516	0,2734227	0,241504	69	71	71	69
0,0168559	0,5833281	-0,1319631	54,57795	1,964244	0,393676	0,2577778	0,2366563	0,2734835	0,2788993	0,2420721	68	71	72	69
0,01660872	0,5835589	-0,1322172	54,52862	1,818245	0,2879913	0,2577778	0,2759329	0,2730803	0,2396227	0,2424752	72	71	69	69
0,01638354	0,5832981	-0,1322437	54,4446	1,923761	0,2960863	0,2577778	0,2722392	0,2740545	0,2433163	0,241501	71	71	69	69
0,01627103	0,583285	-0,1320043	54,46064	1,845243	0,4506972	0,2666667	0,2951653	0,2806121	0,238168	0,2527212	73	72	69	70
0,01640671	0,5831335	-0,1318779	54,45371	1,917659	0,4583659	0,2755556	0,2789859	0,2901485	0,2721252	0,2609626	72	73	71	70
0,01628493	0,5828617	-0,131647	54,47752	1,931872	0,5147388	0,2755556	0,2773742	0,2897269	0,2737369	0,2613842	72	73	71	70
0,01622572	0,5827821	-0,1316438	54,50538	1,951742	0,5061954	0,2755556	0,2535282	0,290011	0,2975829	0,2611001	70	73	73	70
0,01626383	0,5826365	-0,1314792	54,52829	2,026814	0,5138306	0,2755556	0,2691559	0,2906854	0,2819552	0,2604257	71	73	72	70
0,0161545	0,5827311	-0,1314987	54,49648	2,026656	0,4707319	0,28	0,2478154	0,2955592	0,3121846	0,2644408	69	73	74	71
0,01618429	0,5829586	-0,1313272	54,47934	1,949052	0,4727896	0,28	0,2706149	0,2947626	0,2893851	0,2652374	71	73	73	71
0,01609464	0,5828788	-0,1312096	54,43043	1,563328	0,2912572	0,28	0,2791563	0,2927207	0,2808437	0,2672793	72	73	72	71
0,01590526	0,5832268	-0,1315499	54,33851	1,808999	0,4889209	0,2755556	0,275389	0,2887563	0,2757221	0,2623548	72	73	72	70
0,01556957	0,5835333	-0,1317413	54,43444	1,744808	0,5243396	0,28	0,2585275	0,2922047	0,3014725	0,2677953	70	73	74	71
0,01570348	0,5836384	-0,1319525	54,52558	1,73441	0,5029803	0,28	0,2498341	0,2923143	0,3101659	0,2676857	69	73	74	71
0,01553296	0,5838856	-0,1320589	54,47381	1,755368	0,4442631	0,28	0,2555922	0,2931111	0,3044078	0,2668889	70	73	74	71
0,01549001	0,5838555	-0,1320889	54,48039	1,507086	0,3133312	0,28	0,2614516	0,2919376	0,2985484	0,2680624	70	73	73	71
0,01531676	0,5841961	-0,1323718	54,43181	1,72987	0,5384507	0,28	0,2661452	0,2919142	0,2938548	0,2680858	71	73	73	71
0,01505853	0,5844074	-0,1325867	54,55019	1,616052	0,5087214	0,28	0,2561233	0,2910733	0,3038767	0,2689267	70	73	74	71
0,01488561	0,5845708	-0,1320312	54,66701	1,540071	0,398253	0,2844445	0,2445978	0,2958626	0,3242911	0,2730263	69	73	75	71
0,01495689	0,584435	-0,1325729	54,45991	1,660038	0,4926994	0,2844445	0,2652489	0,2961178	0,30364	0,2727711	71	73	74	71
0,0151104	0,5843864	-0,1321314	54,52476	1,695647	0,6656932	0,2844445	0,2495119	0,294744	0,3193769	0,2741449	69	73	75	71
0,01487699	0,5846328	-0,1324514	54,49485	1,567955	0,5286208	0,2844445	0,2447187	0,2948378	0,3241702	0,2740511	69	73	75	71
0,01494408	0,5846128	-0,1324351	54,53275	1,546745	0,5482997	0,2844445	0,2516966	0,2944289	0,3171923	0,27446	70	73	75	71
0,01494641	0,5845529	-0,1324079	54,46777	1,575303	0,510693	0,2888889	0,2749654	0,299535	0,3028124	0,2782428	71	73	74	72
0,01502496	0,5842471	-0,1325768	54,4105	1,663162	0,4364918	0,2888889	0,2754889	0,3011556	0,3022889	0,2766222	72	74	74	72
0,01494413	0,5842692	-0,132496	54,42273	1,593916	0,5282794	0,2933333	0,2790304	0,3039897	0,3076362	0,282677	72	74	74	72
0,01474563	0,5842932	-0,1321762	54,51928	1,43867	0,3680629	0,2933333	0,26477	0,3040394	0,3218967	0,2826273	71	74	75	72
0,01485384	0,5844032	-0,1320934	54,64864	1,482	0,401992	0,2977778	0,2671244	0,3085779	0,3284312	0,2869777	71	74	76	72
0,01511589	0,584561	-0,1323834	54,41185	1,612913	0,4039231	0,3022222	0,3126727	0,3143121	0,2917717	0,2901323	75	75	73	73
0,01487482	0,5842827	-0,1324346	54,3921	1,638248	0,4410961	0,3066667	0,29401	0,3186382	0,3193234	0,2946951	73	75	75	73
0,01472784	0,5844344	-0,1322651	54,3804	1,579232	0,5301906	0,3111111	0,3073395	0,3216015	0,3148827	0,3006207	74	75	75	74
0,0146957	0,5842633	-0,1320873	54,40024	1,629967	0,5807	0,3111111	0,3003574	0,3216038	0,3218648	0,3006184	74	75	75	74
0,01436482	0,584585	-0,131311	54,58106	1,469904	0,5505995	0,3155555	0,2895539	0,3247486	0,3415572	0,3063625	73	75	77	74
0,01456874	0,5847275	-0,1321087	54,48683	1,527043	0,6676504	0,3155555	0,2913216	0,3241495	0,3397895	0,3069616	73	75	77	74
0,01431084	0,5848045	-0,13189	54,42106	1,540663	0,650788	0,3155555	0,292374	0,3244543	0,3387371	0,3066568	73	75	77	74
0,01405471	0,5849139	-0,1313622	54,62399	1,466673	0,5322555	0,3155555	0,2714156	0,3248997	0,3596955	0,3062114	71	75	78	74
0,01408721	0,5848314	-0,1318397	54,39223	1,564086	0,612748	0,3155555	0,3090325	0,3250689	0,3220786	0,3060422	74	76	75	74
0,0141473	0,5850166	-0,1317867	54,39297	1,493429	0,6903937	0,3244444	0,3332869	0,3324748	0,315602	0,3164141	76	76	75	75
0,0139441	0,5850327	-0,1317598	54,42516	1,498473	0,652936	0,3333333	0,3102221	0,3417887	0,3564446	0,324878	74	77	78	75
0,01383065	0,5849473	-0,1315763	54,42626	1,478657	0,8421439	0,3377778	0,3104705	0,3441429	0,365085	0,3314126	74	77	79	76
0,01387041	0,5849615	-0,1319319	54,35367	1,440287	0,7364557	0,3377778	0,3192179	0,3448161	0,3563376	0,3307395	75	77	78	76
0,01380624	0,5850941	-0,1319231	54,50822	1,439734	0,6884115	0,3377778	0,303538	0,345291	0,3720176	0,3302645	74	77	79	76
0,01351754	0,5849754	-0,1316964	54,60656	1,459865	0,5617483	0,3466667	0,3233899	0,3556478	0,3699434	0,3376855	75	78	79	77
0,01373819	0,5851704	-0,1318221	54,49603	1,497818	0,5989992	0,3688889	0,346817	0,3778771	0,3909607	0,3599007	77	80	81	78
0,0136463	0,5852555	-0,1317437	54,49755	1,518081	0,6258579	0,3866667	0,3560487	0,3955889	0,4172846	0,3777444	78	81	83	80
0,01360251	0,5854484	-0,1317271	54,38164	1,592887	0,6202416	0,3911111	0,398061	0,4008375	0,3841612	0,3813847	81	82	80	80
0,01324251	0,5855385	-0,1310918	54,57818	1,222123	0,5124118	0,3911111	0,3514521	0,3982082	0,4307701	0,384014	78	81	84	80
0,01342455	0,5856823	-0,1315527	54,49983	1,428866	0,8289382	0,3911111	0,3557098	0,3971104	0,4265124	0,3851118	78	81	84	80
0,01322112	0,5856873	-0,1317428	54,56945	1,38547	0,8282247	0,3911111	0,3516602	0,3966835	0,430562	0,3855387	78	81	84	80
0,01303048	0,5859837	-0,1317811	54,53815	1,263959	0,6942817	0,3911111	0,3581016	0,3968079	0,4241206	0,3854143	78	81	83	80
0,01311797	0,5859995	-0,1321465	54,62617	1,437841	0,7009057	0,3911111	0,3370238	0,3984804	0,4451984	0,3837418	76	81	85	80
0,01296599	0,5860916	-0,1315935	54,72909	1,306494	0,6244396	0,3866667	0,3408533	0,3934872	0,43248	0,3798461	77	81	84	80
0,01300885	0,5862037	-0,1326321	54,59511	1,356212	0,6966761	0,3866667	0,367512	0,393262	0,4058213	0,3800713	79	81	82	80
0,01300825	0,586265	-0,1323059	54,53196	1,43105	0,7808331	0,3911111	0,3646811	0,3976133	0,4175411	0,3846089	79	81	83	80
0,01289452	0,5864867	-0,1324728	54,58496	1,364622	0,8643406	0,3911111	0,3583319	0,3961139	0,4238904	0,3861083	78	81	83	80
0,01286047	0,5868919	-0,1326804	54,63738	1,271331	0,7858512	0,3866667	0,335406	0,3915215	0,4379273	0,3818119	76	81	85	80
0,01258611	0,5870594	-0,1328851	54,65894	1,266852	0,7461346	0,3911111	0,3612895	0,3963183	0,4209327	0,3859039	78	81	83	80
0,01252036	0,5873392	-0,1326578	54,61711	1,244231	0,6988677	0,3866667	0,3531618	0,3921203	0,4201716	0,381213	78	81	83	80
0,01251147	0,5875381	-0,1331016	54,74069	1,217017	0,7546118	0,3911111	0,3508458	0,3957352	0,4313764	0,386487	78	81	84	80
0,01243499	0,5878397	-0,1330674	54,73184	1,210695	0,7317574	0,3911111	0,3484446	0,3959005	0,4337776	0,3863217	77	81	84	80
0,0123861	0,5878722	-0,1330372	54,72649	1,167953	0,79707	0,3911111	0,3594226	0,3948199	0,4227996	0,3874023	78	81	83	80
0,01237608	0,5877955	-0,1331778	54,72558	0,872171	0,5677623	0,3911111	0,3771329	0,3941552	0,4050893	0,388067	80	81	82	81
0,01178822	0,5880604	-0,1331442	54,89513	1,089352	0,6436456	0,3866667	0,3333346	0,3911237	0,4399987	0,3822096	76	81	85	80
0,01200904	0,5879669	-0,1335428	54,60303	1,073287	0,7780399	0,3911111	0,3640693	0,3940636	0,418153	0,3881586	79	81	83	81
0,01194151	0,5879865	-0,1336308	54,59904	1,037442	0,7866492	0,3911111	0,3711806	0,393619	0,4110416	0,3886032	79	81	82	81
0,01209833	0,5878513	-0,133562	54,58692	1,125618	0,7799931	0,3911111	0,3781107	0,3945673	0,4041115	0,3876549	80	81	82	81
0,01252083	0,5877851	-0,1335104	54,69554	1,173725	0,7575156	0,3911111	0,3674074	0,3952732	0,4148148	0,386949	79	81	83	80
0,01248946	0,5875331	-0,1334978	54,59686	1,275571	0,6448206	0,3866667	0,3698925	0,3929742	0,4034408	0,3803591	79	81	82	80
0,01242769	0,5874417	-0,1333115	54,55786	1,24794	0,7162926	0,3911111	0,3934084	0,3964276	0,3888138	0,3857946	81	81	81	80
0,01289342	0,5872092	-0,1329401	54,49172	1,352937	0,6215848	0,3911111	0,4001802	0,3984246	0,382042	0,3837976	82	81	80	80
0,01279234	0,5869495	-0,1330991	54,52107	1,407763	0,6663215	0,3911111	0,3950203	0,3985255	0,3872019	0,3836967	81	81	80	80
0,01303898	0,5868253	-0,1328373	54,49766	1,451734	0,7079049	0,3911111	0,3968651	0,3985494	0,3853571	0,3836728	81	81	80	80
0,01277108	0,5866655	-0,1330494	54,44088	1,419759	0,7593759	0,3955556	0,4282737	0,4021594	0,3628374	0,3889517	84	82	79	81
0,01267825	0,5866717	-0,1327781	54,54908	1,42804	0,7153441	0,3955556	0,3805949	0,4026825	0,4105162	0,3884286	80	82	82	81
0,01277668	0,5867121	-0,1327783	54,62547	1,425381	0,7472986	0,3955556	0,3706578	0,4023364	0,4204533	0,3887747	79	82	83	81
0,01292307	0,5867472	-0,1322681	54,48154	1,46125	0,8154349	0,4	0,3898779	0,4064582	0,4101221	0,3935418	81	82	82	81
0,01289523	0,5867091	-0,1318204	54,49607	1,536006	0,8239132	0,4	0,4003372	0,4071209	0,3996628	0,3928791	82	82	81	81
0,01278878	0,5865889	-0,1318869	54,52522	1,566322	0,8759198	0,4	0,3841744	0,406904	0,4158256	0,393096	80	82	83	81
0,01296567	0,5864226	-0,1316974	54,49676	1,625829	0,844386	0,4044445	0,3870738	0,4122589	0,4218151	0,39663	80	82	83	81
0,01268522	0,5865004	-0,1317323	54,56189	1,52257	0,9037232	0,4044445	0,3717614	0,4106329	0,4371275	0,398256	79	82	84	81
0,01265161	0,5864674	-0,1316744	54,53978	1,537527	0,9172601	0,4044445	0,3776517	0,4106471	0,4312372	0,3982418	80	82	84	81
0,01270475	0,5864472	-0,1319499	54,71536	1,444084	0,9085479	0,4044445	0,3547945	0,4097998	0,4540944	0,3990891	78	82	86	81
0,0127273	0,5864224	-0,1316631	54,49551	1,512463	0,8861933	0,4177778	0,3872365	0,4240405	0,448319	0,4115151	80	83	85	82
0,01243797	0,5863149	-0,1313389	54,69614	1,53381	0,7286118	0,4222222	0,3819517	0,4302742	0,4624927	0,4141702	80	84	86	83
0,01261998	0,5864137	-0,1309908	54,66153	1,470758	0,6720144	0,4266667	0,4009113	0,4346541	0,4524221	0,4186792	82	84	86	83
0,01264707	0,5864617	-0,131042	54,66606	1,456806	0,6538597	0,4266667	0,3834185	0,4346961	0,4699149	0,4186372	80	84	87	83
0,01264573	0,5862131	-0,1318329	54,5442	1,28306	0,5959052	0,4266667	0,402101	0,4335382	0,4512324	0,4197951	82	84	86	83
0,01265865	0,5864946	-0,1318867	54,62857	1,520231	0,7709894	0,44	0,4046856	0,4474924	0,4753144	0,4325076	82	85	88	84
0,012653	0,5867779	-0,1322993	54,64949	1,527936	0,6850836	0,44	0,3995424	0,4484285	0,4804576	0,4315715	81	85	88	84
0,01235076	0,5870641	-0,1323586	54,55682	1,439682	0,7554926	0,4444444	0,4231006	0,4512863	0,4657883	0,4376025	83	86	87	85
0,01264884	0,5872239	-0,1325091	54,54394	1,429165	0,5970886	0,4488889	0,4281274	0,4572096	0,4696504	0,4405681	84	86	87	85
0,01256946	0,5872068	-0,1328565	54,59556	1,384308	0,5683469	0,4488889	0,4437379	0,4570485	0,4540399	0,4407293	85	86	86	85
0,01263134	0,587483	-0,1331298	54,6392	1,308803	0,5240633	0,4488889	0,4133172	0,4567363	0,4844606	0,4410415	83	86	88	85
0,01274208	0,5879089	-0,1334127	54,62362	1,29754	0,3937702	0,4488889	0,4406774	0,4579266	0,4571004	0,4398512	85	86	86	85
0,01288224	0,5882647	-0,1335276	54,57834	1,244051	0,2804059	0,4488889	0,4436272	0,4585254	0,4541506	0,4392524	85	86	86	85
0,01307079	0,588466	-0,1339801	54,62427	1,251839	0,2434692	0,4488889	0,4389502	0,4589726	0,4588276	0,4388052	85	86	86	85
0,01322501	0,5888245	-0,1344945	54,6769	1,211986	0,1359266	0,4488889	0,4194856	0,4596495	0,4782922	0,4381283	83	86	88	85
0,01332133	0,5891851	-0,1349154	54,72044	1,201952	-0,02957972	0,4488889	0,4261413	0,4612042	0,4716365	0,4365736	84	86	87	84
0,01335499	0,5896447	-0,1346519	54,87016	1,130202	-0,3714448	0,4488889	0,4148207	0,4639054	0,4829571	0,4338724	83	87	88	84
0,01333796	0,5899759	-0,1349704	54,84481	1,200915	-0,4494228	0,4488889	0,4068147	0,4653923	0,4909631	0,4323855	82	87	89	84
0,01349752	0,5905524	-0,1359419	54,69017	1,134313	-0,4868414	0,4488889	0,4248668	0,4651004	0,472911	0,4326774	83	87	87	84
0,01357318	0,5910982	-0,1362059	54,59039	0,9132528	-0,5768173	0,4488889	0,4461448	0,4637896	0,451633	0,4339882	85	87	86	84
0,0132868	0,5914394	-0,1366511	54,74455	1,103114	-0,7160754	0,4488889	0,4323765	0,4670808	0,4654013	0,430697	84	87	87	84
0,01310234	0,5920747	-0,1370661	54,73328	1,062101	-0,8901833	0,4488889	0,4340113	0,4684117	0,4637665	0,4293661	84	87	87	84
0,01313725	0,5925842	-0,137455	54,73152	1,041226	-1,030748	0,4488889	0,4304027	0,4696086	0,4673751	0,4281692	84	87	87	84
0,01287178	0,5933248	-0,1372999	54,90538	1,017518	-1,443956	0,4488889	0,4194203	0,4735036	0,4783575	0,4242741	83	87	88	83
0,01300071	0,5939724	-0,1371074	54,92024	1,024614	-1,590993	0,4488889	0,4253525	0,475045	0,4724253	0,4227328	84	88	87	83
0,01323172	0,5945157	-0,1379533	54,75698	1,038334	-1,537833	0,4488889	0,449499	0,4746506	0,4482788	0,4231272	85	87	85	83
0,01308474	0,5950853	-0,1380823	54,66957	1,056928	-1,767159	0,4488889	0,4800627	0,4771298	0,4177151	0,420648	88	88	83	83
0,01316444	0,5954427	-0,1384433	54,6867	1,075901	-1,855351	0,4488889	0,4756577	0,4782014	0,4221201	0,4195764	88	88	83	83
0,01308839	0,5959148	-0,1389312	54,67546	1,106338	-2,178144	0,4488889	0,4613721	0,4817337	0,4364057	0,4160441	86	88	84	83
0,01310267	0,5963825	-0,139019	55,08709	0,9829214	-2,66897	0,4488889	0,4061459	0,4854078	0,4916319	0,41237	82	88	89	82
0,01356787	0,5967481	-0,1394003	55,10178	0,9448544	-2,830752	0,4488889	0,4248802	0,486645	0,4728976	0,4111328	83	88	87	82
0,01383725	0,5970115	-0,1407347	54,80908	1,162666	-3,03798	0,4488889	0,4585458	0,4908954	0,439232	0,4068824	86	89	85	82
0,01427629	0,5972971	-0,1412732	54,90227	1,126767	-3,297194	0,4488889	0,4501033	0,4931285	0,4476745	0,4046493	86	89	85	82
0,01445953	0,5972	-0,1419779	55,12798	1,14571	-3,828076	0,4488889	0,4490007	0,4986268	0,4487771	0,399151	85	89	85	81
0,01502966	0,5972181	-0,1431726	54,99062	1,073724	-4,134243	0,4533333	0,4754924	0,505413	0,4311743	0,4012537	88	90	84	82
0,01515149	0,5967895	-0,1440534	54,85904	1,196287	-4,574563	0,4533333	0,4748691	0,5110418	0,4317976	0,3956248	87	90	84	81
0,0158013	0,5965736	-0,1448551	54,83855	1,272828	-5,150772	0,4533333	0,4718353	0,5175694	0,4348314	0,3890973	87	91	84	81
0,01629634	0,5961323	-0,1454467	54,82023	1,387864	-5,521793	0,4533333	0,4786487	0,5224299	0,428018	0,3842368	88	91	84	80
0,01659802	0,5958227	-0,1459256	54,97752	1,428681	-6,225096	0,4533333	0,46505	0,5298711	0,4416167	0,3767956	87	92	85	80
0,01729543	0,5958237	-0,1466344	54,72904	1,450482	-6,418014	0,4533333	0,5459743	0,5320183	0,3606924	0,3746484	93	92	78	79
0,01757786	0,5954661	-0,1473147	54,78194	1,501056	-6,691051	0,4577778	0,5480579	0,5396988	0,3674976	0,3758567	93	93	79	80
0,01796508	0,5949563	-0,1476536	55,01167	1,492541	-7,270926	0,4577778	0,4912508	0,5454124	0,4243048	0,3701431	89	93	83	79
